time_s,altitude_ft,airspeed_kts,vspeed_fpm,pitch_deg,roll_deg,heading_deg,throttle,rpm
0.09,3000.0,89.9,-0,0.31,-0.02,90.0,0.021,0
0.19,2999.9,89.7,-0,1.15,-0.08,90.0,0.031,0
0.29,2999.8,89.5,-0,2.10,-0.17,90.0,0.044,0
0.39,2999.7,89.3,-0,2.93,-0.29,90.0,0.058,0
0.49,2999.8,89.1,-0,3.55,-0.43,90.0,0.072,0
0.59,3000.0,88.8,-0,3.98,-0.59,90.0,0.087,0
0.69,3000.3,88.5,-0,4.27,-0.75,90.1,0.102,0
0.79,3000.7,88.3,-0,4.48,-0.91,90.1,0.117,0
0.89,3001.2,88.0,-0,4.65,-1.06,90.1,0.133,0
0.99,3001.7,87.7,-0,4.81,-1.21,90.1,0.148,0
1.09,3002.3,87.4,-0,4.98,-1.34,90.1,0.164,0
1.19,3003.0,87.1,-0,5.15,-1.47,90.1,0.181,0
1.29,3003.8,86.8,-0,5.32,-1.59,90.1,0.198,0
1.39,3004.5,86.5,-0,5.49,-1.70,90.1,0.215,0
1.49,3005.4,86.2,-0,5.65,-1.80,90.1,0.233,0
1.59,3006.2,85.9,-0,5.79,-1.88,90.0,0.251,0
1.69,3007.1,85.6,-0,5.92,-1.96,90.0,0.269,0
1.79,3008.1,85.2,-0,6.03,-2.04,90.0,0.287,0
1.89,3009.0,84.9,-0,6.13,-2.10,89.9,0.306,0
1.99,3010.0,84.6,-0,6.22,-2.16,89.8,0.325,0
2.09,3011.0,84.3,-0,6.29,-2.21,89.8,0.344,0
2.19,3012.1,84.0,-0,6.35,-2.25,89.7,0.363,0
2.29,3013.1,83.6,-0,6.40,-2.29,89.6,0.382,0
2.39,3014.2,83.3,-0,6.43,-2.32,89.6,0.402,0
2.49,3015.3,83.0,-0,6.46,-2.35,89.5,0.421,0
2.59,3016.3,82.7,-0,6.48,-2.38,89.4,0.441,0
2.69,3017.4,82.3,-0,6.48,-2.40,89.3,0.460,0
2.79,3018.5,82.0,-0,6.48,-2.41,89.2,0.480,0
2.89,3019.5,81.7,-0,6.46,-2.42,89.1,0.499,0
2.99,3020.6,81.4,-0,6.44,-2.43,89.1,0.519,0
3.09,3021.6,81.1,-0,6.41,-2.44,89.0,0.539,0
3.19,3022.7,80.8,-0,6.37,-2.44,88.9,0.559,0
3.29,3023.7,80.5,-0,6.32,-2.43,88.9,0.578,0
3.39,3024.7,80.2,-0,6.27,-2.43,88.8,0.598,0
3.49,3025.7,79.9,-0,6.20,-2.42,88.7,0.618,0
3.59,3026.6,79.6,-0,6.13,-2.40,88.7,0.637,0
3.69,3027.6,79.3,-0,6.05,-2.38,88.6,0.657,0
3.79,3028.5,79.0,-0,5.97,-2.36,88.6,0.676,0
3.89,3029.4,78.7,-0,5.88,-2.33,88.5,0.696,0
3.99,3030.3,78.4,-0,5.78,-2.30,88.5,0.715,0
4.09,3031.1,78.1,-0,5.68,-2.26,88.4,0.734,0
4.19,3031.9,77.9,-0,5.57,-2.22,88.4,0.753,0
4.29,3032.7,77.6,-0,5.45,-2.17,88.3,0.772,0
4.39,3033.4,77.3,-0,5.33,-2.12,88.3,0.791,0
4.49,3034.1,77.1,-0,5.21,-2.07,88.3,0.810,0
4.59,3034.8,76.8,-0,5.08,-2.01,88.2,0.828,0
4.69,3035.4,76.6,-0,4.94,-1.95,88.2,0.847,0
4.79,3036.0,76.4,-0,4.80,-1.88,88.1,0.865,0
4.89,3036.5,76.1,-0,4.66,-1.81,88.1,0.883,0
4.99,3037.0,75.9,-0,4.51,-1.74,88.1,0.901,0
5.09,3037.5,75.7,-0,4.36,-1.66,88.0,0.919,0
5.19,3037.9,75.5,-0,4.21,-1.58,88.0,0.936,0
5.29,3038.3,75.2,-0,4.05,-1.50,87.9,0.953,0
5.39,3038.7,75.0,-0,3.89,-1.41,87.9,0.970,0
5.49,3039.0,74.8,-0,3.73,-1.32,87.9,0.987,0
5.59,3039.2,74.6,-0,3.56,-1.24,87.8,1.000,0
5.69,3039.4,74.5,-0,3.40,-1.15,87.8,1.000,0
5.79,3039.6,74.3,-0,3.23,-1.05,87.8,1.000,0
5.89,3039.7,74.1,-0,3.06,-0.96,87.7,1.000,0
5.99,3039.8,73.9,-0,2.89,-0.87,87.7,1.000,0
6.09,3039.9,73.8,-0,2.72,-0.78,87.7,1.000,0
6.19,3039.9,73.6,-0,2.54,-0.68,87.6,1.000,0
6.29,3039.8,73.5,-0,2.37,-0.59,87.6,1.000,0
6.39,3039.7,73.3,-0,2.20,-0.50,87.6,1.000,0
6.49,3039.6,73.2,-0,2.02,-0.41,87.5,1.000,0
6.59,3039.4,73.1,-0,1.85,-0.32,87.5,1.000,0
6.69,3039.2,73.0,-0,1.68,-0.23,87.5,1.000,0
6.79,3038.9,72.8,-0,1.51,-0.14,87.5,1.000,0
6.89,3038.6,72.7,-0,1.34,-0.05,87.5,1.000,0
6.99,3038.2,72.6,-0,1.17,0.04,87.5,1.000,0
7.09,3037.8,72.5,-0,1.00,0.12,87.5,1.000,0
7.19,3037.4,72.4,-0,0.83,0.20,87.5,1.000,0
7.29,3036.9,72.3,-0,0.66,0.28,87.5,1.000,0
7.39,3036.4,72.3,-0,0.50,0.36,87.5,1.000,0
7.49,3035.8,72.2,-0,0.34,0.44,87.5,1.000,0
7.59,3035.2,72.1,-0,0.18,0.52,87.5,1.000,0
7.69,3034.5,72.1,-0,0.02,0.59,87.5,1.000,0
7.79,3033.8,72.0,-0,-0.13,0.66,87.5,1.000,0
7.89,3033.1,72.0,-0,-0.29,0.73,87.6,1.000,0
7.99,3032.3,71.9,-0,-0.43,0.80,87.6,1.000,0
8.09,3031.5,71.9,-0,-0.58,0.86,87.6,1.000,0
8.19,3030.7,71.8,-0,-0.72,0.93,87.6,1.000,0
8.29,3029.8,71.8,-0,-0.86,0.99,87.7,1.000,0
8.39,3028.9,71.8,-0,-1.00,1.04,87.7,1.000,0
8.49,3028.0,71.8,-0,-1.13,1.10,87.7,1.000,0
8.59,3027.0,71.7,-0,-1.25,1.15,87.7,1.000,0
8.69,3026.0,71.7,-0,-1.38,1.20,87.8,1.000,0
8.79,3024.9,71.7,-0,-1.49,1.25,87.8,1.000,0
8.89,3023.8,71.7,-0,-1.60,1.29,87.9,1.000,0
8.99,3022.7,71.7,-0,-1.71,1.33,87.9,1.000,0
9.09,3021.6,71.7,-0,-1.80,1.37,87.9,1.000,0
9.19,3020.4,71.7,-0,-1.89,1.40,88.0,1.000,0
9.29,3019.2,71.7,-0,-1.98,1.43,88.0,1.000,0
9.39,3018.0,71.7,-0,-2.06,1.45,88.0,1.000,0
9.49,3016.8,71.7,-0,-2.13,1.48,88.1,1.000,0
9.59,3015.5,71.8,-0,-2.20,1.49,88.1,1.000,0
9.69,3014.2,71.8,-0,-2.26,1.51,88.2,1.000,0
9.79,3012.9,71.8,-0,-2.32,1.52,88.2,1.000,0
9.89,3011.6,71.8,-0,-2.37,1.53,88.2,1.000,0
9.99,3010.3,71.8,-0,-2.41,1.53,88.3,1.000,0
10.09,3008.9,71.9,-0,-2.45,1.53,88.3,1.000,0
10.19,3007.6,71.9,-0,-2.49,1.52,88.4,1.000,0
10.29,3006.2,71.9,-0,-2.52,1.51,88.4,1.000,0
10.39,3004.8,71.9,-0,-2.54,1.50,88.5,1.000,0
10.49,3003.4,72.0,-0,-2.56,1.48,88.5,1.000,0
10.59,3002.0,72.0,-0,-2.58,1.46,88.5,1.000,0
10.69,3000.6,72.0,-0,-2.59,1.44,88.6,1.000,0
10.79,2999.2,72.0,-0,-2.59,1.41,88.6,1.000,0
10.89,2997.7,72.1,-0,-2.59,1.38,88.7,1.000,0
10.99,2996.3,72.1,-0,-2.59,1.34,88.7,1.000,0
11.09,2994.9,72.1,-0,-2.58,1.31,88.8,1.000,0
11.19,2993.4,72.1,-0,-2.57,1.27,88.8,1.000,0
11.29,2992.0,72.2,-0,-2.55,1.22,88.8,1.000,0
11.39,2990.5,72.2,-0,-2.52,1.18,88.9,1.000,0
11.49,2989.1,72.2,-0,-2.50,1.13,88.9,1.000,0
11.59,2987.7,72.2,-0,-2.47,1.07,89.0,1.000,0
11.69,2986.2,72.2,-0,-2.43,1.02,89.0,1.000,0
11.79,2984.8,72.3,-0,-2.39,0.97,89.0,1.000,0
11.89,2983.4,72.3,-0,-2.35,0.91,89.1,1.000,0
11.99,2981.9,72.3,-0,-2.30,0.85,89.1,1.000,0
12.09,2980.5,72.3,-0,-2.25,0.79,89.1,1.000,0
12.19,2979.1,72.3,-0,-2.20,0.72,89.1,1.000,0
12.29,2977.7,72.3,-0,-2.14,0.66,89.2,1.000,0
12.39,2976.3,72.3,-0,-2.08,0.59,89.2,1.000,0
12.49,2974.9,72.3,-0,-2.02,0.52,89.2,1.000,0
12.59,2973.6,72.3,-0,-1.96,0.46,89.2,1.000,0
12.69,2972.2,72.3,-0,-1.89,0.39,89.2,1.000,0
12.79,2970.8,72.3,-0,-1.82,0.32,89.3,1.000,0
12.89,2969.5,72.3,-0,-1.75,0.25,89.3,1.000,0
12.99,2968.2,72.3,-0,-1.67,0.18,89.3,1.000,0
13.09,2966.9,72.3,-0,-1.60,0.11,89.3,1.000,0
13.19,2965.6,72.3,-0,-1.52,0.04,89.3,1.000,0
13.29,2964.3,72.3,-0,-1.44,-0.03,89.3,1.000,0
13.39,2963.0,72.3,-0,-1.36,-0.10,89.3,1.000,0
13.49,2961.8,72.3,-0,-1.28,-0.17,89.3,1.000,0
13.59,2960.6,72.2,-0,-1.20,-0.24,89.3,1.000,0
13.69,2959.3,72.2,-0,-1.11,-0.31,89.3,1.000,0
13.79,2958.1,72.2,-0,-1.03,-0.37,89.3,1.000,0
13.89,2956.9,72.2,-0,-0.94,-0.44,89.3,1.000,0
13.99,2955.8,72.1,-0,-0.86,-0.50,89.2,1.000,0
14.09,2954.6,72.1,-0,-0.77,-0.57,89.2,1.000,0
14.19,2953.5,72.1,-0,-0.68,-0.63,89.2,1.000,0
14.29,2952.4,72.0,-0,-0.59,-0.69,89.2,1.000,0
14.39,2951.3,72.0,-0,-0.51,-0.75,89.2,1.000,0
14.49,2950.2,71.9,-0,-0.42,-0.80,89.1,1.000,0
14.59,2949.1,71.9,-0,-0.33,-0.86,89.1,1.000,0
14.69,2948.1,71.8,-0,-0.24,-0.91,89.1,1.000,0
14.79,2947.1,71.8,-0,-0.15,-0.96,89.1,1.000,0
14.89,2946.1,71.7,-0,-0.07,-1.01,89.0,1.000,0
14.99,2945.1,71.7,-0,0.02,-1.06,89.0,1.000,0
15.09,2944.1,71.6,-0,0.11,-1.10,89.0,1.000,0
15.19,2943.1,71.5,-0,0.19,-1.14,88.9,1.000,0
15.29,2942.2,71.5,-0,0.28,-1.18,88.9,1.000,0
15.39,2941.3,71.4,-0,0.36,-1.22,88.9,1.000,0
15.49,2940.3,71.3,-0,0.44,-1.25,88.8,1.000,0
15.59,2939.5,71.3,-0,0.52,-1.28,88.8,1.000,0
15.69,2938.6,71.2,-0,0.61,-1.31,88.7,1.000,0
15.79,2937.7,71.1,-0,0.69,-1.33,88.7,1.000,0
15.89,2936.9,71.0,-0,0.77,-1.35,88.7,1.000,0
15.99,2936.1,71.0,-0,0.84,-1.37,88.6,1.000,0
16.09,2935.2,70.9,-0,0.92,-1.39,88.6,1.000,0
16.19,2934.4,70.8,-0,1.00,-1.40,88.5,1.000,0
16.29,2933.7,70.7,-0,1.07,-1.41,88.5,1.000,0
16.39,2932.9,70.6,-0,1.14,-1.42,88.4,1.000,0
16.49,2932.1,70.5,-0,1.22,-1.42,88.4,1.000,0
16.59,2931.4,70.4,-0,1.29,-1.42,88.4,1.000,0
16.69,2930.7,70.3,-0,1.36,-1.42,88.3,1.000,0
16.79,2930.0,70.2,-0,1.42,-1.41,88.3,1.000,0
16.89,2929.2,70.2,-0,1.49,-1.41,88.2,1.000,0
16.99,2928.6,70.1,-0,1.55,-1.40,88.2,1.000,0
17.09,2927.9,70.0,-0,1.62,-1.38,88.1,1.000,0
17.19,2927.2,69.9,-0,1.68,-1.37,88.1,1.000,0
17.29,2926.6,69.7,-0,1.74,-1.35,88.0,1.000,0
17.39,2925.9,69.6,-0,1.79,-1.33,88.0,1.000,0
17.49,2925.3,69.5,-0,1.85,-1.30,88.0,1.000,0
17.59,2924.6,69.4,-0,1.91,-1.28,87.9,1.000,0
17.69,2924.0,69.3,-0,1.96,-1.25,87.9,1.000,0
17.79,2923.4,69.2,-0,2.01,-1.22,87.8,1.000,0
17.89,2922.8,69.1,-0,2.06,-1.19,87.8,1.000,0
17.99,2922.2,69.0,-0,2.11,-1.15,87.8,1.000,0
18.09,2921.6,68.9,-0,2.16,-1.12,87.7,1.000,0
18.19,2921.1,68.8,-0,2.21,-1.08,87.7,1.000,0
18.29,2920.5,68.7,-0,2.25,-1.04,87.6,1.000,0
18.39,2919.9,68.5,-0,2.29,-1.00,87.6,1.000,0
18.49,2919.4,68.4,-0,2.33,-0.95,87.6,1.000,0
18.59,2918.8,68.3,-0,2.37,-0.91,87.5,1.000,0
18.69,2918.3,68.2,-0,2.41,-0.86,87.5,1.000,0
18.79,2917.7,68.1,-0,2.45,-0.81,87.5,1.000,0
18.89,2917.2,68.0,-0,2.48,-0.77,87.5,1.000,0
18.99,2916.7,67.8,-0,2.52,-0.72,87.4,1.000,0
19.09,2916.1,67.7,-0,2.55,-0.67,87.4,1.000,0
19.19,2915.6,67.6,-0,2.58,-0.62,87.4,1.000,0
19.29,2915.1,67.5,-0,2.61,-0.56,87.4,1.000,0
19.39,2914.6,67.4,-0,2.64,-0.51,87.4,1.000,0
19.49,2914.0,67.2,-0,2.66,-0.46,87.3,1.000,0
19.59,2913.5,67.1,-0,2.69,-0.41,87.3,1.000,0
19.69,2913.0,67.0,-0,2.71,-0.35,87.3,1.000,0
19.79,2912.5,66.9,-0,2.74,-0.30,87.3,1.000,0
19.89,2912.0,66.8,-0,2.76,-0.25,87.3,1.000,0
19.99,2911.5,66.6,-0,2.79,-0.20,87.3,1.000,0
20.09,2911.0,66.5,-0,2.81,-0.15,87.3,1.000,0
20.19,2910.5,66.4,-0,2.83,-0.09,87.3,1.000,0
20.29,2910.0,66.3,-0,2.86,-0.04,87.3,1.000,0
20.39,2909.5,66.1,-0,2.89,0.01,87.3,1.000,0
20.49,2909.0,66.0,-0,2.91,0.05,87.3,1.000,0
20.59,2908.5,65.9,-0,2.94,0.10,87.3,1.000,0
20.69,2908.0,65.8,-0,2.96,0.15,87.3,1.000,0
20.79,2907.5,65.7,-0,2.99,0.20,87.3,1.000,0
20.89,2907.0,65.5,-0,3.02,0.24,87.3,1.000,0
20.99,2906.5,65.4,-0,3.04,0.28,87.3,1.000,0
21.09,2906.0,65.3,-0,3.07,0.32,87.3,1.000,0
21.19,2905.6,65.2,-0,3.10,0.36,87.3,1.000,0
21.29,2905.1,65.0,-0,3.12,0.40,87.3,1.000,0
21.39,2904.6,64.9,-0,3.15,0.44,87.3,1.000,0
21.49,2904.2,64.8,-0,3.18,0.48,87.3,1.000,0
21.59,2903.7,64.7,-0,3.20,0.51,87.3,1.000,0
21.69,2903.2,64.5,-0,3.23,0.54,87.4,1.000,0
21.79,2902.8,64.4,-0,3.25,0.57,87.4,1.000,0
21.89,2902.3,64.3,-0,3.28,0.60,87.4,1.000,0
21.99,2901.9,64.2,-0,3.30,0.62,87.4,1.000,0
22.09,2901.4,64.0,-0,3.33,0.65,87.4,1.000,0
22.19,2900.9,63.9,-0,3.35,0.67,87.5,1.000,0
22.29,2900.5,63.8,-0,3.38,0.69,87.5,1.000,0
22.39,2900.0,63.7,-0,3.40,0.71,87.5,1.000,0
22.49,2899.6,63.5,-0,3.43,0.72,87.5,1.000,0
22.59,2899.2,63.4,-0,3.45,0.74,87.6,1.000,0
22.69,2898.7,63.3,-0,3.47,0.75,87.6,1.000,0
22.79,2898.3,63.2,-0,3.50,0.76,87.6,1.000,0
22.89,2897.8,63.0,-0,3.52,0.76,87.6,1.000,0
22.99,2897.4,62.9,-0,3.54,0.77,87.7,1.000,0
23.09,2897.0,62.8,-0,3.56,0.77,87.7,1.000,0
23.19,2896.5,62.7,-0,3.58,0.77,87.7,1.000,0
23.29,2896.1,62.5,-0,3.59,0.77,87.7,1.000,0
23.39,2895.6,62.4,-0,3.60,0.77,87.8,1.000,0
23.49,2895.2,62.3,-0,3.61,0.76,87.8,1.000,0
23.59,2894.7,62.2,-0,3.62,0.76,87.8,1.000,0
23.69,2894.3,62.1,-0,3.62,0.75,87.8,1.000,0
23.79,2893.8,61.9,-0,3.62,0.74,87.9,1.000,0
23.89,2893.3,61.8,-0,3.62,0.73,87.9,1.000,0
23.99,2892.9,61.7,-0,3.62,0.71,87.9,1.000,0
24.09,2892.4,61.6,-0,3.61,0.70,87.9,1.000,0
24.19,2891.9,61.5,-0,3.60,0.68,88.0,1.000,0
24.29,2891.4,61.3,-0,3.59,0.66,88.0,1.000,0
24.39,2890.9,61.2,-0,3.58,0.64,88.0,1.000,0
24.49,2890.4,61.1,-0,3.57,0.62,88.0,1.000,0
24.59,2889.9,61.0,-0,3.55,0.60,88.1,1.000,0
24.69,2889.4,60.9,-0,3.54,0.57,88.1,1.000,0
24.79,2888.9,60.8,-0,3.52,0.54,88.1,1.000,0
24.89,2888.4,60.7,-0,3.50,0.52,88.1,1.000,0
24.99,2887.8,60.6,-0,3.48,0.49,88.1,1.000,0
25.09,2887.3,60.5,-0,3.46,0.46,88.2,1.000,0
25.19,2886.7,60.3,-0,3.44,0.43,88.2,1.000,0
25.29,2886.1,60.2,-0,3.41,0.39,88.2,1.000,0
25.39,2885.6,60.1,-0,3.39,0.36,88.2,1.000,0
25.49,2885.0,60.0,-0,3.36,0.33,88.2,1.000,0
25.59,2884.4,59.9,-0,3.33,0.29,88.2,1.000,0
25.69,2883.8,59.8,-0,3.30,0.26,88.2,1.000,0
25.79,2883.1,59.7,-0,3.27,0.22,88.2,1.000,0
25.89,2882.5,59.7,-0,3.25,0.18,88.2,1.000,0
25.99,2881.9,59.6,-0,3.22,0.14,88.3,1.000,0
26.09,2881.2,59.5,-0,3.18,0.11,88.3,1.000,0
26.19,2880.5,59.4,-0,3.15,0.07,88.3,1.000,0
26.29,2879.9,59.3,-0,3.12,0.03,88.3,1.000,0
26.39,2879.2,59.2,-0,3.09,-0.01,88.3,1.000,0
26.49,2878.5,59.1,-0,3.06,-0.05,88.3,1.000,0
26.59,2877.8,59.0,-0,3.03,-0.09,88.3,1.000,0
26.69,2877.0,59.0,-0,3.00,-0.13,88.3,1.000,0
26.79,2876.3,58.9,-0,2.97,-0.17,88.3,1.000,0
26.89,2875.6,58.8,-0,2.94,-0.21,88.2,1.000,0
26.99,2874.8,58.7,-0,2.91,-0.25,88.2,1.000,0
27.09,2874.1,58.6,-0,2.88,-0.29,88.2,1.000,0
27.19,2873.3,58.6,-0,2.85,-0.33,88.2,1.000,0
27.29,2872.5,58.5,-0,2.83,-0.37,88.2,1.000,0
27.39,2871.7,58.4,-0,2.80,-0.40,88.2,1.000,0
27.49,2870.9,58.3,-0,2.78,-0.44,88.2,1.000,0
27.59,2870.1,58.3,-0,2.75,-0.48,88.2,1.000,0
27.69,2869.2,58.2,-0,2.73,-0.52,88.1,1.000,0
27.79,2868.4,58.1,-0,2.71,-0.55,88.1,1.000,0
27.89,2867.6,58.1,-0,2.69,-0.58,88.1,1.000,0
27.99,2866.7,58.0,-0,2.67,-0.62,88.1,1.000,0
28.09,2865.8,57.9,-0,2.65,-0.65,88.1,1.000,0
28.19,2865.0,57.9,-0,2.64,-0.68,88.0,1.000,0
28.29,2864.1,57.8,-0,2.62,-0.71,88.0,1.000,0
28.39,2863.2,57.8,-0,2.61,-0.74,88.0,1.000,0
28.49,2862.3,57.7,-0,2.59,-0.77,87.9,1.000,0
28.59,2861.4,57.6,-0,2.58,-0.80,87.9,1.000,0
28.69,2860.5,57.6,-0,2.56,-0.82,87.9,1.000,0
28.79,2859.6,57.5,-0,2.54,-0.85,87.8,1.000,0
28.89,2858.7,57.5,-0,2.51,-0.87,87.8,1.000,0
28.99,2857.7,57.4,-0,2.47,-0.89,87.8,1.000,0
29.09,2856.8,57.3,-0,2.42,-0.91,87.7,1.000,0
29.19,2855.8,57.3,-0,2.37,-0.93,87.7,1.000,0
29.29,2854.9,57.2,-0,2.31,-0.94,87.7,1.000,0
29.39,2853.9,57.2,-0,2.25,-0.95,87.6,1.000,0
29.49,2852.9,57.2,-0,2.19,-0.97,87.6,1.000,0
29.59,2852.0,57.1,-0,2.13,-0.98,87.6,1.000,0
29.69,2851.0,57.1,-0,2.06,-0.98,87.5,1.000,0
29.79,2849.9,57.0,-0,1.99,-0.99,87.5,1.000,0
29.89,2848.9,57.0,-0,1.92,-0.99,87.4,1.000,0
29.99,2847.9,57.0,-0,1.85,-0.99,87.4,1.000,0
30.09,2846.9,56.9,-0,1.78,-0.99,87.4,1.000,0
30.19,2845.8,56.9,-0,1.70,-0.99,87.3,1.000,0
30.29,2844.7,56.9,-0,1.63,-0.98,87.3,1.000,0
30.39,2843.6,56.9,-0,1.55,-0.98,87.2,1.000,0
30.49,2842.5,56.8,-0,1.47,-0.97,87.2,1.000,0
30.59,2841.4,56.8,-0,1.40,-0.96,87.2,1.000,0
30.69,2840.3,56.8,-0,1.32,-0.94,87.1,1.000,0
30.79,2839.2,56.8,-0,1.24,-0.93,87.1,1.000,0
30.89,2838.0,56.8,-0,1.16,-0.91,87.1,1.000,0
30.99,2836.9,56.8,-0,1.07,-0.89,87.0,1.000,0
31.09,2835.7,56.8,-0,0.99,-0.87,87.0,1.000,0
31.19,2834.5,56.8,-0,0.91,-0.85,86.9,1.000,0
31.29,2833.3,56.8,-0,0.83,-0.82,86.9,1.000,0
31.39,2832.1,56.8,-0,0.75,-0.80,86.9,1.000,0
31.49,2830.8,56.8,-0,0.67,-0.77,86.8,1.000,0
31.59,2829.6,56.8,-0,0.59,-0.74,86.8,1.000,0
31.69,2828.3,56.8,-0,0.51,-0.71,86.8,1.000,0
31.79,2827.1,56.8,-0,0.43,-0.68,86.7,1.000,0
31.89,2825.8,56.8,-0,0.35,-0.65,86.7,1.000,0
31.99,2824.5,56.9,-0,0.27,-0.61,86.7,1.000,0
32.09,2823.2,56.9,-0,0.20,-0.58,86.7,1.000,0
32.19,2821.8,56.9,-0,0.12,-0.54,86.6,1.000,0
32.29,2820.5,56.9,-0,0.05,-0.50,86.6,1.000,0
32.39,2819.1,56.9,-0,-0.03,-0.46,86.6,1.000,0
32.49,2817.8,57.0,-0,-0.10,-0.42,86.6,1.000,0
32.59,2816.4,57.0,-0,-0.17,-0.38,86.5,1.000,0
32.69,2815.0,57.0,-0,-0.23,-0.34,86.5,1.000,0
32.79,2813.6,57.1,-0,-0.30,-0.30,86.5,1.000,0
32.89,2812.2,57.1,-0,-0.36,-0.26,86.5,1.000,0
32.99,2810.8,57.1,-0,-0.42,-0.21,86.5,1.000,0
33.09,2809.3,57.2,-0,-0.48,-0.17,86.5,1.000,0
33.19,2807.9,57.2,-0,-0.54,-0.12,86.5,1.000,0
33.29,2806.4,57.3,-0,-0.60,-0.08,86.5,1.000,0
33.39,2804.9,57.3,-0,-0.65,-0.03,86.5,1.000,0
33.49,2803.5,57.4,-0,-0.70,0.01,86.4,1.000,0
33.59,2802.0,57.4,-0,-0.75,0.06,86.4,1.000,0
33.69,2800.5,57.4,-0,-0.80,0.10,86.4,1.000,0
33.79,2799.0,57.5,-0,-0.84,0.15,86.4,1.000,0
33.89,2797.5,57.5,-0,-0.88,0.19,86.4,1.000,0
33.99,2796.0,57.6,-0,-0.92,0.24,86.5,1.000,0
34.09,2794.4,57.6,-0,-0.95,0.28,86.5,1.000,0
34.19,2792.9,57.7,-0,-0.98,0.32,86.5,1.000,0
34.29,2791.4,57.7,-0,-1.01,0.37,86.5,1.000,0
34.39,2789.8,57.8,-0,-1.04,0.41,86.5,1.000,0
34.49,2788.3,57.8,-0,-1.07,0.45,86.5,1.000,0
34.59,2786.7,57.9,-0,-1.09,0.49,86.5,1.000,0
34.69,2785.1,58.0,-0,-1.11,0.53,86.5,1.000,0
34.79,2783.6,58.0,-0,-1.12,0.57,86.5,1.000,0
34.89,2782.0,58.1,-0,-1.14,0.61,86.6,1.000,0
34.99,2780.4,58.1,-0,-1.15,0.64,86.6,1.000,0
35.09,2778.9,58.2,-0,-1.16,0.68,86.6,1.000,0
35.19,2777.3,58.2,-0,-1.16,0.71,86.6,1.000,0
35.29,2775.7,58.3,-0,-1.16,0.74,86.7,1.000,0
35.39,2774.2,58.3,-0,-1.16,0.78,86.7,1.000,0
35.49,2772.6,58.4,-0,-1.16,0.80,86.7,1.000,0
35.59,2771.0,58.4,-0,-1.15,0.83,86.7,1.000,0
35.69,2769.4,58.5,-0,-1.15,0.86,86.8,1.000,0
35.79,2767.9,58.5,-0,-1.14,0.88,86.8,1.000,0
35.89,2766.3,58.6,-0,-1.12,0.91,86.8,1.000,0
35.99,2764.7,58.6,-0,-1.11,0.93,86.9,1.000,0
36.09,2763.1,58.7,-0,-1.09,0.95,86.9,1.000,0
36.19,2761.6,58.7,-0,-1.07,0.96,86.9,1.000,0
36.29,2760.0,58.8,-0,-1.05,0.98,87.0,1.000,0
36.39,2758.4,58.8,-0,-1.02,0.99,87.0,1.000,0
36.49,2756.9,58.9,-0,-0.99,1.01,87.0,1.000,0
36.59,2755.3,58.9,-0,-0.97,1.02,87.1,1.000,0
36.69,2753.8,58.9,-0,-0.93,1.02,87.1,1.000,0
36.79,2752.3,59.0,-0,-0.90,1.03,87.1,1.000,0
36.89,2750.7,59.0,-0,-0.87,1.03,87.2,1.000,0
36.99,2749.2,59.1,-0,-0.83,1.04,87.2,1.000,0
37.09,2747.7,59.1,-0,-0.79,1.04,87.3,1.000,0
37.19,2746.1,59.1,-0,-0.75,1.03,87.3,1.000,0
37.29,2744.6,59.2,-0,-0.71,1.03,87.3,1.000,0
37.39,2743.1,59.2,-0,-0.66,1.02,87.4,1.000,0
37.49,2741.6,59.2,-0,-0.62,1.02,87.4,1.000,0
37.59,2740.2,59.2,-0,-0.57,1.01,87.4,1.000,0
37.69,2738.7,59.3,-0,-0.52,0.99,87.5,1.000,0
37.79,2737.2,59.3,-0,-0.47,0.98,87.5,1.000,0
37.89,2735.7,59.3,-0,-0.42,0.97,87.5,1.000,0
37.99,2734.3,59.3,-0,-0.37,0.95,87.6,1.000,0
38.09,2732.8,59.4,-0,-0.32,0.93,87.6,1.000,0
38.19,2731.4,59.4,-0,-0.27,0.91,87.6,1.000,0
38.29,2730.0,59.4,-0,-0.21,0.89,87.7,1.000,0
38.39,2728.6,59.4,-0,-0.16,0.86,87.7,1.000,0
38.49,2727.2,59.4,-0,-0.10,0.84,87.7,1.000,0
38.59,2725.8,59.4,-0,-0.05,0.81,87.8,1.000,0
38.69,2724.4,59.4,-0,0.01,0.78,87.8,1.000,0
38.79,2723.0,59.4,-0,0.06,0.75,87.8,1.000,0
38.89,2721.6,59.4,-0,0.12,0.72,87.9,1.000,0
38.99,2720.3,59.4,-0,0.18,0.69,87.9,1.000,0
39.09,2718.9,59.4,-0,0.23,0.66,87.9,1.000,0
39.19,2717.6,59.4,-0,0.29,0.62,87.9,1.000,0
39.29,2716.3,59.4,-0,0.35,0.59,88.0,1.000,0
39.39,2715.0,59.4,-0,0.40,0.55,88.0,1.000,0
39.49,2713.7,59.4,-0,0.46,0.52,88.0,1.000,0
39.59,2712.4,59.4,-0,0.52,0.48,88.0,1.000,0
39.69,2711.1,59.4,-0,0.57,0.44,88.0,1.000,0
39.79,2709.8,59.4,-0,0.63,0.40,88.0,1.000,0
39.89,2708.5,59.4,-0,0.68,0.36,88.1,1.000,0
39.99,2707.3,59.4,-0,0.74,0.32,88.1,1.000,0
40.09,2706.0,59.4,-0,0.79,0.28,88.1,1.000,0
40.19,2704.8,59.3,-0,0.84,0.24,88.1,1.000,0
40.29,2703.6,59.3,-0,0.89,0.20,88.1,1.000,0
40.39,2702.4,59.3,-0,0.94,0.16,88.1,1.000,0
40.49,2701.2,59.3,-0,0.99,0.12,88.1,1.000,0
40.59,2700.0,59.3,-0,1.04,0.07,88.1,1.000,0
40.69,2698.8,59.2,-0,1.09,0.03,88.1,1.000,0
40.79,2697.6,59.2,-0,1.13,-0.01,88.1,1.000,0
40.89,2696.4,59.2,-0,1.18,-0.05,88.1,1.000,0
40.99,2695.3,59.2,-0,1.22,-0.09,88.1,1.000,0
41.09,2694.1,59.1,-0,1.26,-0.13,88.1,1.000,0
41.19,2692.9,59.1,-0,1.30,-0.17,88.1,1.000,0
41.29,2691.8,59.1,-0,1.34,-0.20,88.1,1.000,0
41.39,2690.7,59.0,-0,1.38,-0.24,88.1,1.000,0
41.49,2689.5,59.0,-0,1.41,-0.28,88.0,1.000,0
41.59,2688.4,59.0,-0,1.44,-0.31,88.0,1.000,0
41.69,2687.3,58.9,-0,1.48,-0.35,88.0,1.000,0
41.79,2686.2,58.9,-0,1.51,-0.38,88.0,1.000,0
41.89,2685.1,58.9,-0,1.53,-0.42,88.0,1.000,0
41.99,2684.0,58.8,-0,1.56,-0.45,88.0,1.000,0
42.09,2682.9,58.8,-0,1.59,-0.48,87.9,1.000,0
42.19,2681.8,58.8,-0,1.61,-0.51,87.9,1.000,0
42.29,2680.7,58.7,-0,1.63,-0.54,87.9,1.000,0
42.39,2679.6,58.7,-0,1.65,-0.56,87.9,1.000,0
42.49,2678.6,58.6,-0,1.66,-0.59,87.9,1.000,0
42.59,2677.5,58.6,-0,1.68,-0.61,87.8,1.000,0
42.69,2676.4,58.6,-0,1.69,-0.64,87.8,1.000,0
42.79,2675.3,58.5,-0,1.70,-0.66,87.8,1.000,0
42.89,2674.3,58.5,-0,1.71,-0.68,87.8,1.000,0
42.99,2673.2,58.5,-0,1.72,-0.70,87.7,1.000,0
43.09,2672.1,58.4,-0,1.72,-0.71,87.7,1.000,0
43.19,2671.1,58.4,-0,1.72,-0.73,87.7,1.000,0
43.29,2670.0,58.3,-0,1.73,-0.74,87.6,1.000,0
43.39,2668.9,58.3,-0,1.72,-0.75,87.6,1.000,0
43.49,2667.9,58.3,-0,1.72,-0.76,87.6,1.000,0
43.59,2666.8,58.2,-0,1.72,-0.77,87.5,1.000,0
43.69,2665.7,58.2,-0,1.71,-0.78,87.5,1.000,0
43.79,2664.7,58.2,-0,1.70,-0.78,87.5,1.000,0
43.89,2663.6,58.1,-0,1.69,-0.79,87.5,1.000,0
43.99,2662.5,58.1,-0,1.68,-0.79,87.4,1.000,0
44.09,2661.5,58.0,-0,1.66,-0.79,87.4,1.000,0
44.19,2660.4,58.0,-0,1.65,-0.79,87.4,1.000,0
44.29,2659.3,58.0,-0,1.63,-0.78,87.3,1.000,0
44.39,2658.2,57.9,-0,1.61,-0.78,87.3,1.000,0
44.49,2657.2,57.9,-0,1.59,-0.77,87.3,1.000,0
44.59,2656.1,57.9,-0,1.57,-0.76,87.2,1.000,0
44.69,2655.0,57.9,-0,1.54,-0.75,87.2,1.000,0
44.79,2653.9,57.8,-0,1.52,-0.74,87.2,1.000,0
44.89,2652.8,57.8,-0,1.49,-0.73,87.1,1.000,0
44.99,2651.7,57.8,-0,1.46,-0.71,87.1,1.000,0
45.09,2650.6,57.7,-0,1.43,-0.70,87.1,1.000,0
45.19,2649.4,57.7,-0,1.40,-0.68,87.0,1.000,0
45.29,2648.3,57.7,-0,1.37,-0.66,87.0,1.000,0
45.39,2647.2,57.7,-0,1.34,-0.64,87.0,1.000,0
45.49,2646.1,57.7,-0,1.30,-0.62,87.0,1.000,0
45.59,2644.9,57.6,-0,1.27,-0.60,86.9,1.000,0
45.69,2643.8,57.6,-0,1.23,-0.57,86.9,1.000,0
45.79,2642.6,57.6,-0,1.19,-0.55,86.9,1.000,0
45.89,2641.5,57.6,-0,1.16,-0.52,86.9,1.000,0
45.99,2640.3,57.6,-0,1.12,-0.49,86.8,1.000,0
46.09,2639.2,57.6,-0,1.08,-0.46,86.8,1.000,0
46.19,2638.0,57.5,-0,1.04,-0.44,86.8,1.000,0
46.29,2636.8,57.5,-0,1.00,-0.41,86.8,1.000,0
46.39,2635.6,57.5,-0,0.96,-0.37,86.8,1.000,0
46.49,2634.4,57.5,-0,0.92,-0.34,86.7,1.000,0
46.59,2633.2,57.5,-0,0.87,-0.31,86.7,1.000,0
46.69,2632.0,57.5,-0,0.83,-0.28,86.7,1.000,0
46.79,2630.8,57.5,-0,0.79,-0.24,86.7,1.000,0
46.89,2629.5,57.5,-0,0.75,-0.21,86.7,1.000,0
46.99,2628.3,57.5,-0,0.70,-0.17,86.7,1.000,0
47.09,2627.1,57.5,-0,0.66,-0.14,86.7,1.000,0
47.19,2625.8,57.5,-0,0.62,-0.10,86.7,1.000,0
47.29,2624.6,57.5,-0,0.58,-0.07,86.6,1.000,0
47.39,2623.3,57.5,-0,0.54,-0.03,86.6,1.000,0
47.49,2622.0,57.5,-0,0.49,0.00,86.6,1.000,0
47.59,2620.8,57.5,-0,0.45,0.04,86.6,1.000,0
47.69,2619.5,57.5,-0,0.41,0.07,86.6,1.000,0
47.79,2618.2,57.5,-0,0.37,0.11,86.6,1.000,0
47.89,2616.9,57.6,-0,0.33,0.14,86.6,1.000,0
47.99,2615.6,57.6,-0,0.29,0.18,86.6,1.000,0
48.09,2614.3,57.6,-0,0.25,0.21,86.6,1.000,0
48.19,2613.0,57.6,-0,0.22,0.25,86.6,1.000,0
48.29,2611.6,57.6,-0,0.18,0.28,86.7,1.000,0
48.39,2610.3,57.6,-0,0.14,0.31,86.7,1.000,0
48.49,2609.0,57.6,-0,0.11,0.35,86.7,1.000,0
48.59,2607.6,57.7,-0,0.07,0.38,86.7,1.000,0
48.69,2606.3,57.7,-0,0.04,0.41,86.7,1.000,0
48.79,2604.9,57.7,-0,0.01,0.44,86.7,1.000,0
48.89,2603.5,57.7,-0,-0.03,0.47,86.7,1.000,0
48.99,2602.2,57.7,-0,-0.06,0.50,86.7,1.000,0
49.09,2600.8,57.8,-0,-0.09,0.53,86.7,1.000,0
49.19,2599.4,57.8,-0,-0.11,0.55,86.8,1.000,0
49.29,2598.0,57.8,-0,-0.14,0.58,86.8,1.000,0
49.39,2596.6,57.8,-0,-0.17,0.60,86.8,1.000,0
49.49,2595.2,57.9,-0,-0.19,0.63,86.8,1.000,0
49.59,2593.8,57.9,-0,-0.21,0.65,86.8,1.000,0
49.69,2592.4,57.9,-0,-0.24,0.67,86.9,1.000,0
49.79,2591.0,57.9,-0,-0.26,0.69,86.9,1.000,0
49.89,2589.6,58.0,-0,-0.27,0.71,86.9,1.000,0
49.99,2588.2,58.0,-0,-0.29,0.73,86.9,1.000,0
50.09,2586.8,58.0,-0,-0.31,0.74,87.0,1.000,0
50.19,2585.4,58.0,-0,-0.32,0.76,87.0,1.000,0
50.29,2584.0,58.1,-0,-0.34,0.77,87.0,1.000,0
50.39,2582.5,58.1,-0,-0.35,0.78,87.0,1.000,0
50.49,2581.1,58.1,-0,-0.36,0.79,87.1,1.000,0
50.59,2579.7,58.2,-0,-0.37,0.80,87.1,1.000,0
50.69,2578.2,58.2,-0,-0.38,0.81,87.1,1.000,0
50.79,2576.8,58.2,-0,-0.38,0.81,87.2,1.000,0
50.89,2575.4,58.2,-0,-0.39,0.82,87.2,1.000,0
50.99,2573.9,58.3,-0,-0.39,0.82,87.2,1.000,0
51.09,2572.5,58.3,-0,-0.39,0.82,87.2,1.000,0
51.19,2571.1,58.3,-0,-0.39,0.82,87.3,1.000,0
51.29,2569.6,58.4,-0,-0.39,0.82,87.3,1.000,0
51.39,2568.2,58.4,-0,-0.39,0.81,87.3,1.000,0
51.49,2566.8,58.4,-0,-0.38,0.81,87.4,1.000,0
51.59,2565.3,58.4,-0,-0.38,0.80,87.4,1.000,0
51.69,2563.9,58.5,-0,-0.37,0.80,87.4,1.000,0
51.79,2562.5,58.5,-0,-0.36,0.79,87.4,1.000,0
51.89,2561.0,58.5,-0,-0.35,0.78,87.5,1.000,0
51.99,2559.6,58.5,-0,-0.34,0.76,87.5,1.000,0
52.09,2558.2,58.6,-0,-0.33,0.75,87.5,1.000,0
52.19,2556.7,58.6,-0,-0.32,0.74,87.5,1.000,0
52.29,2555.3,58.6,-0,-0.30,0.72,87.6,1.000,0
52.39,2553.9,58.6,-0,-0.29,0.70,87.6,1.000,0
52.49,2552.5,58.7,-0,-0.27,0.68,87.6,1.000,0
52.59,2551.1,58.7,-0,-0.25,0.66,87.6,1.000,0
52.69,2549.6,58.7,-0,-0.23,0.64,87.7,1.000,0
52.79,2548.2,58.7,-0,-0.21,0.62,87.7,1.000,0
52.89,2546.8,58.7,-0,-0.19,0.60,87.7,1.000,0
52.99,2545.4,58.8,-0,-0.17,0.58,87.7,1.000,0
53.09,2544.0,58.8,-0,-0.15,0.55,87.8,1.000,0
53.19,2542.6,58.8,-0,-0.12,0.53,87.8,1.000,0
53.29,2541.2,58.8,-0,-0.10,0.50,87.8,1.000,0
53.39,2539.9,58.8,-0,-0.07,0.47,87.8,1.000,0
53.49,2538.5,58.8,-0,-0.05,0.44,87.8,1.000,0
53.59,2537.1,58.9,-0,-0.02,0.42,87.8,1.000,0
53.69,2535.7,58.9,-0,0.01,0.39,87.9,1.000,0
53.79,2534.4,58.9,-0,0.03,0.36,87.9,1.000,0
53.89,2533.0,58.9,-0,0.06,0.33,87.9,1.000,0
53.99,2531.6,58.9,-0,0.09,0.30,87.9,1.000,0
54.09,2530.3,58.9,-0,0.12,0.27,87.9,1.000,0
54.19,2528.9,58.9,-0,0.15,0.23,87.9,1.000,0
54.29,2527.6,58.9,-0,0.18,0.20,87.9,1.000,0
54.39,2526.3,58.9,-0,0.21,0.17,87.9,1.000,0
54.49,2524.9,58.9,-0,0.24,0.14,87.9,1.000,0
54.59,2523.6,58.9,-0,0.28,0.11,87.9,1.000,0
54.69,2522.3,58.9,-0,0.31,0.08,87.9,1.000,0
54.79,2521.0,58.9,-0,0.34,0.05,87.9,1.000,0
54.89,2519.6,59.0,-0,0.37,0.02,87.9,1.000,0
54.99,2518.3,59.0,-0,0.40,-0.02,87.9,1.000,0
55.09,2517.0,58.9,-0,0.43,-0.05,87.9,1.000,0
55.19,2515.8,58.9,-0,0.46,-0.08,87.9,1.000,0
55.29,2514.5,58.9,-0,0.50,-0.11,87.9,1.000,0
55.39,2513.2,58.9,-0,0.53,-0.14,87.9,1.000,0
55.49,2511.9,58.9,-0,0.56,-0.16,87.9,1.000,0
55.59,2510.6,58.9,-0,0.59,-0.19,87.9,1.000,0
55.69,2509.4,58.9,-0,0.62,-0.22,87.9,1.000,0
55.79,2508.1,58.9,-0,0.65,-0.25,87.9,1.000,0
55.89,2506.9,58.9,-0,0.68,-0.27,87.9,1.000,0
55.99,2505.6,58.9,-0,0.71,-0.30,87.8,1.000,0
56.09,2504.4,58.9,-0,0.73,-0.32,87.8,1.000,0
56.19,2503.1,58.9,-0,0.76,-0.35,87.8,1.000,0
56.29,2501.9,58.9,-0,0.79,-0.37,87.8,1.000,0
56.39,2500.7,58.8,-0,0.82,-0.39,87.8,1.000,0
56.49,2499.4,58.8,-0,0.84,-0.41,87.8,1.000,0
56.59,2498.2,58.8,-0,0.87,-0.43,87.7,1.000,0
56.69,2497.0,58.8,-0,0.89,-0.45,87.7,1.000,0
56.79,2495.8,58.8,-0,0.92,-0.47,87.7,1.000,0
56.89,2494.6,58.8,-0,0.94,-0.48,87.7,1.000,0
56.99,2493.4,58.8,-0,0.96,-0.50,87.7,1.000,0
57.09,2492.2,58.7,-0,0.98,-0.51,87.6,1.000,0
57.19,2491.0,58.7,-0,1.00,-0.52,87.6,1.000,0
57.29,2489.8,58.7,-0,1.02,-0.54,87.6,1.000,0
57.39,2488.6,58.7,-0,1.04,-0.55,87.6,1.000,0
57.49,2487.4,58.7,-0,1.06,-0.55,87.6,1.000,0
57.59,2486.3,58.6,-0,1.07,-0.56,87.5,1.000,0
57.69,2485.1,58.6,-0,1.09,-0.57,87.5,1.000,0
57.79,2483.9,58.6,-0,1.10,-0.57,87.5,1.000,0
57.89,2482.7,58.6,-0,1.12,-0.58,87.5,1.000,0
57.99,2481.6,58.6,-0,1.13,-0.58,87.4,1.000,0
58.09,2480.4,58.5,-0,1.14,-0.58,87.4,1.000,0
58.19,2479.2,58.5,-0,1.15,-0.58,87.4,1.000,0
58.29,2478.1,58.5,-0,1.16,-0.58,87.4,1.000,0
58.39,2476.9,58.5,-0,1.17,-0.58,87.3,1.000,0
58.49,2475.8,58.5,-0,1.17,-0.57,87.3,1.000,0
58.59,2474.6,58.4,-0,1.18,-0.57,87.3,1.000,0
58.69,2473.4,58.4,-0,1.18,-0.56,87.3,1.000,0
58.79,2472.3,58.4,-0,1.19,-0.55,87.2,1.000,0
58.89,2471.1,58.4,-0,1.19,-0.54,87.2,1.000,0
58.99,2470.0,58.3,-0,1.19,-0.53,87.2,1.000,0
59.09,2468.8,58.3,-0,1.19,-0.52,87.2,1.000,0
59.19,2467.7,58.3,-0,1.19,-0.51,87.1,1.000,0
59.29,2466.5,58.3,-0,1.19,-0.50,87.1,1.000,0
59.39,2465.3,58.3,-0,1.18,-0.48,87.1,1.000,0
59.49,2464.2,58.2,-0,1.18,-0.47,87.1,1.000,0
59.59,2463.0,58.2,-0,1.18,-0.45,87.1,1.000,0
59.69,2461.9,58.2,-0,1.17,-0.43,87.0,1.000,0
59.79,2460.7,58.2,-0,1.16,-0.41,87.0,1.000,0
59.89,2459.6,58.2,-0,1.15,-0.39,87.0,1.000,0
59.99,2458.4,58.1,-0,1.14,-0.37,87.0,1.000,0
60.09,2457.2,58.1,-0,1.13,-0.35,87.0,1.000,0
60.19,2456.1,58.1,-0,1.12,-0.33,86.9,1.000,0
60.29,2454.9,58.1,-0,1.11,-0.31,86.9,1.000,0
60.39,2453.7,58.1,-0,1.10,-0.29,86.9,1.000,0
60.49,2452.6,58.0,-0,1.09,-0.26,86.9,1.000,0
60.59,2451.4,58.0,-0,1.07,-0.24,86.9,1.000,0
60.69,2450.2,58.0,-0,1.06,-0.21,86.9,1.000,0
60.79,2449.0,58.0,-0,1.04,-0.19,86.9,1.000,0
60.89,2447.9,58.0,-0,1.02,-0.16,86.9,1.000,0
60.99,2446.7,58.0,-0,1.00,-0.14,86.9,1.000,0
61.09,2445.5,58.0,-0,0.99,-0.11,86.8,1.000,0
61.19,2444.3,57.9,-0,0.97,-0.08,86.8,1.000,0
61.29,2443.1,57.9,-0,0.95,-0.06,86.8,1.000,0
61.39,2441.9,57.9,-0,0.93,-0.03,86.8,1.000,0
61.49,2440.7,57.9,-0,0.91,-0.00,86.8,1.000,0
61.59,2439.5,57.9,-0,0.89,0.02,86.8,1.000,0
61.69,2438.3,57.9,-0,0.86,0.05,86.8,1.000,0
61.79,2437.1,57.9,-0,0.84,0.08,86.8,1.000,0
61.89,2435.9,57.9,-0,0.82,0.10,86.8,1.000,0
61.99,2434.6,57.9,-0,0.80,0.13,86.8,1.000,0
62.09,2433.4,57.9,-0,0.77,0.15,86.8,1.000,0
62.19,2432.2,57.9,-0,0.75,0.18,86.8,1.000,0
62.29,2431.0,57.9,-0,0.73,0.21,86.8,1.000,0
62.39,2429.7,57.9,-0,0.70,0.23,86.8,1.000,0
62.49,2428.5,57.9,-0,0.68,0.26,86.8,1.000,0
62.59,2427.2,57.9,-0,0.65,0.28,86.8,1.000,0
62.69,2426.0,57.9,-0,0.63,0.30,86.9,1.000,0
62.79,2424.7,57.9,-0,0.61,0.33,86.9,1.000,0
62.89,2423.5,57.9,-0,0.58,0.35,86.9,1.000,0
62.99,2422.2,57.9,-0,0.56,0.37,86.9,1.000,0
63.09,2421.0,57.9,-0,0.53,0.39,86.9,1.000,0
63.19,2419.7,57.9,-0,0.51,0.41,86.9,1.000,0
63.29,2418.4,57.9,-0,0.49,0.43,86.9,1.000,0
63.39,2417.1,57.9,-0,0.46,0.45,86.9,1.000,0
63.49,2415.9,57.9,-0,0.44,0.47,86.9,1.000,0
63.59,2414.6,57.9,-0,0.41,0.49,87.0,1.000,0
63.69,2413.3,57.9,-0,0.39,0.50,87.0,1.000,0
63.79,2412.0,57.9,-0,0.37,0.52,87.0,1.000,0
63.89,2410.7,57.9,-0,0.35,0.53,87.0,1.000,0
63.99,2409.4,57.9,-0,0.32,0.54,87.0,1.000,0
64.09,2408.1,57.9,-0,0.30,0.56,87.0,1.000,0
64.19,2406.8,57.9,-0,0.28,0.57,87.1,1.000,0
64.29,2405.5,57.9,-0,0.26,0.58,87.1,1.000,0
64.39,2404.2,57.9,-0,0.24,0.59,87.1,1.000,0
64.49,2402.8,58.0,-0,0.22,0.60,87.1,1.000,0
64.59,2401.5,58.0,-0,0.20,0.60,87.1,1.000,0
64.69,2400.2,58.0,-0,0.19,0.61,87.2,1.000,0
64.79,2398.9,58.0,-0,0.17,0.61,87.2,1.000,0
64.89,2397.5,58.0,-0,0.15,0.62,87.2,1.000,0
64.99,2396.2,58.0,-0,0.14,0.62,87.2,1.000,0
65.09,2394.9,58.0,-0,0.12,0.62,87.2,1.000,0
65.19,2393.5,58.1,-0,0.11,0.62,87.3,1.000,0
65.29,2392.2,58.1,-0,0.09,0.62,87.3,1.000,0
65.39,2390.8,58.1,-0,0.08,0.62,87.3,1.000,0
65.49,2389.5,58.1,-0,0.07,0.62,87.3,1.000,0
65.59,2388.1,58.1,-0,0.05,0.61,87.4,1.000,0
65.69,2386.8,58.1,-0,0.04,0.61,87.4,1.000,0
65.79,2385.4,58.1,-0,0.03,0.60,87.4,1.000,0
65.89,2384.1,58.2,-0,0.02,0.59,87.4,1.000,0
65.99,2382.7,58.2,-0,0.02,0.59,87.4,1.000,0
66.09,2381.3,58.2,-0,0.01,0.58,87.5,1.000,0
66.19,2380.0,58.2,-0,0.00,0.57,87.5,1.000,0
66.29,2378.6,58.2,-0,-0.00,0.56,87.5,1.000,0
66.39,2377.3,58.2,-0,-0.01,0.54,87.5,1.000,0
66.49,2375.9,58.3,-0,-0.01,0.53,87.5,1.000,0
66.59,2374.5,58.3,-0,-0.01,0.52,87.6,1.000,0
66.69,2373.2,58.3,-0,-0.02,0.50,87.6,1.000,0
66.79,2371.8,58.3,-0,-0.02,0.49,87.6,1.000,0
66.89,2370.4,58.3,-0,-0.02,0.47,87.6,1.000,0
66.99,2369.1,58.3,-0,-0.02,0.45,87.6,1.000,0
67.09,2367.7,58.4,-0,-0.02,0.44,87.6,1.000,0
67.19,2366.3,58.4,-0,-0.01,0.42,87.6,1.000,0
67.29,2365.0,58.4,-0,-0.01,0.40,87.7,1.000,0
67.39,2363.6,58.4,-0,-0.01,0.38,87.7,1.000,0
67.49,2362.2,58.4,-0,-0.00,0.36,87.7,1.000,0
67.59,2360.9,58.4,-0,0.00,0.34,87.7,1.000,0
67.69,2359.5,58.5,-0,0.01,0.32,87.7,1.000,0
67.79,2358.2,58.5,-0,0.02,0.30,87.7,1.000,0
67.89,2356.8,58.5,-0,0.02,0.28,87.7,1.000,0
67.99,2355.4,58.5,-0,0.03,0.25,87.7,1.000,0
68.09,2354.1,58.5,-0,0.04,0.23,87.7,1.000,0
68.19,2352.7,58.5,-0,0.05,0.21,87.7,1.000,0
68.29,2351.4,58.5,-0,0.06,0.19,87.8,1.000,0
68.39,2350.0,58.6,-0,0.07,0.16,87.8,1.000,0
68.49,2348.7,58.6,-0,0.09,0.14,87.8,1.000,0
68.59,2347.3,58.6,-0,0.10,0.12,87.8,1.000,0
68.69,2346.0,58.6,-0,0.11,0.09,87.8,1.000,0
68.79,2344.6,58.6,-0,0.13,0.07,87.8,1.000,0
68.89,2343.3,58.6,-0,0.14,0.05,87.8,1.000,0
68.99,2341.9,58.6,-0,0.15,0.02,87.8,1.000,0
69.09,2340.6,58.6,-0,0.17,0.00,87.8,1.000,0
69.19,2339.3,58.6,-0,0.19,-0.02,87.8,1.000,0
69.29,2337.9,58.7,-0,0.20,-0.04,87.8,1.000,0
69.39,2336.6,58.7,-0,0.22,-0.06,87.8,1.000,0
69.49,2335.3,58.7,-0,0.24,-0.09,87.8,1.000,0
69.59,2334.0,58.7,-0,0.25,-0.11,87.7,1.000,0
69.69,2332.6,58.7,-0,0.27,-0.13,87.7,1.000,0
69.79,2331.3,58.7,-0,0.29,-0.15,87.7,1.000,0
69.89,2330.0,58.7,-0,0.31,-0.17,87.7,1.000,0
69.99,2328.7,58.7,-0,0.32,-0.19,87.7,1.000,0
70.09,2327.4,58.7,-0,0.34,-0.20,87.7,1.000,0
70.19,2326.1,58.7,-0,0.36,-0.22,87.7,1.000,0
70.29,2324.8,58.7,-0,0.38,-0.24,87.7,1.000,0
70.39,2323.5,58.7,-0,0.40,-0.25,87.7,1.000,0
70.49,2322.2,58.7,-0,0.42,-0.27,87.7,1.000,0
70.59,2320.9,58.7,-0,0.44,-0.29,87.6,1.000,0
70.69,2319.6,58.7,-0,0.46,-0.30,87.6,1.000,0
70.79,2318.3,58.7,-0,0.48,-0.31,87.6,1.000,0
70.89,2317.1,58.7,-0,0.49,-0.33,87.6,1.000,0
70.99,2315.8,58.7,-0,0.51,-0.34,87.6,1.000,0
71.09,2314.5,58.7,-0,0.53,-0.35,87.6,1.000,0
71.19,2313.2,58.7,-0,0.55,-0.36,87.6,1.000,0
71.29,2312.0,58.7,-0,0.57,-0.37,87.5,1.000,0
71.39,2310.7,58.7,-0,0.59,-0.37,87.5,1.000,0
71.49,2309.5,58.7,-0,0.60,-0.38,87.5,1.000,0
71.59,2308.2,58.7,-0,0.62,-0.39,87.5,1.000,0
71.69,2306.9,58.7,-0,0.64,-0.39,87.5,1.000,0
71.79,2305.7,58.7,-0,0.66,-0.40,87.5,1.000,0
71.89,2304.4,58.7,-0,0.67,-0.40,87.4,1.000,0
71.99,2303.2,58.6,-0,0.69,-0.40,87.4,1.000,0
72.09,2302.0,58.6,-0,0.70,-0.40,87.4,1.000,0
72.19,2300.7,58.6,-0,0.72,-0.40,87.4,1.000,0
72.29,2299.5,58.6,-0,0.73,-0.40,87.4,1.000,0
72.39,2298.3,58.6,-0,0.75,-0.40,87.3,1.000,0
72.49,2297.0,58.6,-0,0.76,-0.40,87.3,1.000,0
72.59,2295.8,58.6,-0,0.78,-0.40,87.3,1.000,0
72.69,2294.6,58.6,-0,0.79,-0.39,87.3,1.000,0
72.79,2293.3,58.6,-0,0.80,-0.39,87.3,1.000,0
72.89,2292.1,58.6,-0,0.81,-0.38,87.3,1.000,0
72.99,2290.9,58.5,-0,0.83,-0.37,87.2,1.000,0
73.09,2289.7,58.5,-0,0.84,-0.37,87.2,1.000,0
73.19,2288.5,58.5,-0,0.85,-0.36,87.2,1.000,0
73.29,2287.3,58.5,-0,0.86,-0.35,87.2,1.000,0
73.39,2286.0,58.5,-0,0.86,-0.34,87.2,1.000,0
73.49,2284.8,58.5,-0,0.87,-0.33,87.2,1.000,0
73.59,2283.6,58.5,-0,0.88,-0.31,87.1,1.000,0
73.69,2282.4,58.5,-0,0.89,-0.30,87.1,1.000,0
73.79,2281.2,58.4,-0,0.89,-0.29,87.1,1.000,0
73.89,2280.0,58.4,-0,0.90,-0.28,87.1,1.000,0
73.99,2278.8,58.4,-0,0.90,-0.26,87.1,1.000,0
74.09,2277.6,58.4,-0,0.91,-0.25,87.1,1.000,0
74.19,2276.4,58.4,-0,0.91,-0.23,87.1,1.000,0
74.29,2275.2,58.4,-0,0.92,-0.21,87.1,1.000,0
74.39,2274.0,58.4,-0,0.92,-0.20,87.0,1.000,0
74.49,2272.8,58.3,-0,0.92,-0.18,87.0,1.000,0
74.59,2271.6,58.3,-0,0.92,-0.16,87.0,1.000,0
74.69,2270.4,58.3,-0,0.92,-0.15,87.0,1.000,0
74.79,2269.2,58.3,-0,0.92,-0.13,87.0,1.000,0
74.89,2268.0,58.3,-0,0.92,-0.11,87.0,1.000,0
74.99,2266.8,58.3,-0,0.92,-0.09,87.0,1.000,0
75.09,2265.6,58.3,-0,0.91,-0.07,87.0,1.000,0
75.19,2264.4,58.3,-0,0.91,-0.05,87.0,1.000,0
75.29,2263.2,58.2,-0,0.91,-0.03,87.0,1.000,0
75.39,2262.0,58.2,-0,0.90,-0.01,87.0,1.000,0
75.49,2260.8,58.2,-0,0.90,0.01,87.0,1.000,0
75.59,2259.6,58.2,-0,0.89,0.02,87.0,1.000,0
75.69,2258.4,58.2,-0,0.89,0.04,87.0,1.000,0
75.79,2257.2,58.2,-0,0.88,0.06,87.0,1.000,0
75.89,2256.0,58.2,-0,0.87,0.08,87.0,1.000,0
75.99,2254.8,58.2,-0,0.86,0.10,87.0,1.000,0
76.09,2253.6,58.2,-0,0.86,0.12,87.0,1.000,0
76.19,2252.3,58.1,-0,0.85,0.14,87.0,1.000,0
76.29,2251.1,58.1,-0,0.84,0.16,87.0,1.000,0
76.39,2249.9,58.1,-0,0.83,0.18,87.0,1.000,0
76.49,2248.7,58.1,-0,0.82,0.19,87.0,1.000,0
76.59,2247.5,58.1,-0,0.81,0.21,87.0,1.000,0
76.69,2246.3,58.1,-0,0.79,0.23,87.0,1.000,0
76.79,2245.0,58.1,-0,0.78,0.25,87.0,1.000,0
76.89,2243.8,58.1,-0,0.77,0.26,87.0,1.000,0
76.99,2242.6,58.1,-0,0.76,0.28,87.0,1.000,0
77.09,2241.4,58.1,-0,0.75,0.29,87.0,1.000,0
77.19,2240.1,58.1,-0,0.73,0.31,87.0,1.000,0
77.29,2238.9,58.1,-0,0.72,0.32,87.0,1.000,0
77.39,2237.7,58.1,-0,0.70,0.34,87.0,1.000,0
77.49,2236.4,58.1,-0,0.69,0.35,87.1,1.000,0
77.59,2235.2,58.0,-0,0.68,0.36,87.1,1.000,0
77.69,2234.0,58.0,-0,0.66,0.38,87.1,1.000,0
77.79,2232.7,58.0,-0,0.65,0.39,87.1,1.000,0
77.89,2231.5,58.0,-0,0.63,0.40,87.1,1.000,0
77.99,2230.2,58.0,-0,0.62,0.41,87.1,1.000,0
78.09,2229.0,58.0,-0,0.60,0.42,87.1,1.000,0
78.19,2227.7,58.0,-0,0.59,0.42,87.1,1.000,0
78.29,2226.5,58.0,-0,0.57,0.43,87.1,1.000,0
78.39,2225.2,58.0,-0,0.56,0.44,87.2,1.000,0
78.49,2223.9,58.0,-0,0.54,0.44,87.2,1.000,0
78.59,2222.7,58.0,-0,0.53,0.45,87.2,1.000,0
78.69,2221.4,58.0,-0,0.51,0.45,87.2,1.000,0
78.79,2220.1,58.0,-0,0.50,0.46,87.2,1.000,0
78.89,2218.9,58.0,-0,0.48,0.46,87.2,1.000,0
78.99,2217.6,58.0,-0,0.47,0.46,87.3,1.000,0
79.09,2216.3,58.0,-0,0.45,0.46,87.3,1.000,0
79.19,2215.0,58.1,-0,0.44,0.47,87.3,1.000,0
79.29,2213.8,58.1,-0,0.43,0.46,87.3,1.000,0
79.39,2212.5,58.1,-0,0.41,0.46,87.3,1.000,0
79.49,2211.2,58.1,-0,0.40,0.46,87.3,1.000,0
79.59,2209.9,58.1,-0,0.38,0.46,87.3,1.000,0
79.69,2208.6,58.1,-0,0.37,0.46,87.4,1.000,0
79.79,2207.3,58.1,-0,0.36,0.45,87.4,1.000,0
79.89,2206.0,58.1,-0,0.35,0.45,87.4,1.000,0
79.99,2204.7,58.1,-0,0.33,0.44,87.4,1.000,0
80.09,2203.4,58.1,-0,0.32,0.43,87.4,1.000,0
80.19,2202.1,58.1,-0,0.31,0.43,87.4,1.000,0
80.29,2200.8,58.1,-0,0.30,0.42,87.4,1.000,0
80.39,2199.5,58.1,-0,0.29,0.41,87.5,1.000,0
80.49,2198.2,58.1,-0,0.28,0.40,87.5,1.000,0
80.59,2196.9,58.2,-0,0.27,0.39,87.5,1.000,0
80.69,2195.6,58.2,-0,0.26,0.38,87.5,1.000,0
80.79,2194.3,58.2,-0,0.25,0.37,87.5,1.000,0
80.89,2193.0,58.2,-0,0.24,0.36,87.5,1.000,0
80.99,2191.6,58.2,-0,0.24,0.35,87.5,1.000,0
81.09,2190.3,58.2,-0,0.23,0.33,87.5,1.000,0
81.19,2189.0,58.2,-0,0.22,0.32,87.6,1.000,0
81.29,2187.7,58.2,-0,0.22,0.31,87.6,1.000,0
81.39,2186.4,58.2,-0,0.21,0.29,87.6,1.000,0
81.49,2185.0,58.2,-0,0.21,0.28,87.6,1.000,0
81.59,2183.7,58.3,-0,0.20,0.26,87.6,1.000,0
81.69,2182.4,58.3,-0,0.20,0.25,87.6,1.000,0
81.79,2181.1,58.3,-0,0.19,0.23,87.6,1.000,0
81.89,2179.7,58.3,-0,0.19,0.22,87.6,1.000,0
81.99,2178.4,58.3,-0,0.19,0.20,87.6,1.000,0
82.09,2177.1,58.3,-0,0.19,0.19,87.6,1.000,0
82.19,2175.8,58.3,-0,0.19,0.17,87.6,1.000,0
82.29,2174.4,58.3,-0,0.19,0.15,87.6,1.000,0
82.39,2173.1,58.3,-0,0.18,0.14,87.6,1.000,0
82.49,2171.8,58.3,-0,0.19,0.12,87.6,1.000,0
82.59,2170.5,58.4,-0,0.19,0.10,87.6,1.000,0
82.69,2169.1,58.4,-0,0.19,0.09,87.6,1.000,0
82.79,2167.8,58.4,-0,0.19,0.07,87.6,1.000,0
82.89,2166.5,58.4,-0,0.19,0.06,87.6,1.000,0
82.99,2165.2,58.4,-0,0.20,0.04,87.6,1.000,0
83.09,2163.8,58.4,-0,0.20,0.02,87.6,1.000,0
83.19,2162.5,58.4,-0,0.20,0.01,87.6,1.000,0
83.29,2161.2,58.4,-0,0.21,-0.01,87.6,1.000,0
83.39,2159.9,58.4,-0,0.21,-0.02,87.6,1.000,0
83.49,2158.5,58.4,-0,0.22,-0.04,87.6,1.000,0
83.59,2157.2,58.5,-0,0.23,-0.05,87.6,1.000,0
83.69,2155.9,58.5,-0,0.23,-0.07,87.6,1.000,0
83.79,2154.6,58.5,-0,0.24,-0.08,87.6,1.000,0
83.89,2153.3,58.5,-0,0.25,-0.10,87.6,1.000,0
83.99,2152.0,58.5,-0,0.25,-0.11,87.6,1.000,0
84.09,2150.6,58.5,-0,0.26,-0.12,87.6,1.000,0
84.19,2149.3,58.5,-0,0.27,-0.14,87.6,1.000,0
84.29,2148.0,58.5,-0,0.28,-0.15,87.6,1.000,0
84.39,2146.7,58.5,-0,0.29,-0.16,87.6,1.000,0
84.49,2145.4,58.5,-0,0.30,-0.17,87.6,1.000,0
84.59,2144.1,58.5,-0,0.31,-0.18,87.6,1.000,0
84.69,2142.8,58.5,-0,0.32,-0.19,87.5,1.000,0
84.79,2141.5,58.5,-0,0.33,-0.20,87.5,1.000,0
84.89,2140.2,58.5,-0,0.34,-0.21,87.5,1.000,0
84.99,2138.9,58.5,-0,0.35,-0.22,87.5,1.000,0
85.09,2137.6,58.5,-0,0.36,-0.23,87.5,1.000,0
85.19,2136.3,58.5,-0,0.37,-0.24,87.5,1.000,0
85.29,2135.0,58.6,-0,0.38,-0.24,87.5,1.000,0
85.39,2133.7,58.6,-0,0.39,-0.25,87.5,1.000,0
85.49,2132.4,58.6,-0,0.41,-0.25,87.5,1.000,0
85.59,2131.1,58.6,-0,0.42,-0.26,87.4,1.000,0
85.69,2129.8,58.6,-0,0.43,-0.26,87.4,1.000,0
85.79,2128.5,58.6,-0,0.44,-0.26,87.4,1.000,0
85.89,2127.3,58.6,-0,0.45,-0.27,87.4,1.000,0
85.99,2126.0,58.6,-0,0.46,-0.27,87.4,1.000,0
86.09,2124.7,58.6,-0,0.48,-0.27,87.4,1.000,0
86.19,2123.4,58.6,-0,0.49,-0.27,87.4,1.000,0
86.29,2122.2,58.6,-0,0.50,-0.27,87.4,1.000,0
86.39,2120.9,58.6,-0,0.51,-0.27,87.3,1.000,0
86.49,2119.6,58.6,-0,0.52,-0.27,87.3,1.000,0
86.59,2118.4,58.6,-0,0.53,-0.26,87.3,1.000,0
86.69,2117.1,58.5,-0,0.55,-0.26,87.3,1.000,0
86.79,2115.8,58.5,-0,0.56,-0.26,87.3,1.000,0
86.89,2114.6,58.5,-0,0.57,-0.25,87.3,1.000,0
86.99,2113.3,58.5,-0,0.58,-0.25,87.3,1.000,0
87.09,2112.0,58.5,-0,0.59,-0.24,87.3,1.000,0
87.19,2110.8,58.5,-0,0.60,-0.24,87.2,1.000,0
87.29,2109.5,58.5,-0,0.61,-0.23,87.2,1.000,0
87.39,2108.3,58.5,-0,0.62,-0.22,87.2,1.000,0
87.49,2107.0,58.5,-0,0.63,-0.21,87.2,1.000,0
87.59,2105.8,58.5,-0,0.64,-0.21,87.2,1.000,0
87.69,2104.5,58.5,-0,0.65,-0.20,87.2,1.000,0
87.79,2103.3,58.5,-0,0.66,-0.19,87.2,1.000,0
87.89,2102.1,58.5,-0,0.67,-0.18,87.2,1.000,0
87.99,2100.8,58.5,-0,0.68,-0.17,87.2,1.000,0
88.09,2099.6,58.5,-0,0.68,-0.16,87.1,1.000,0
88.19,2098.3,58.5,-0,0.69,-0.14,87.1,1.000,0
88.29,2097.1,58.5,-0,0.70,-0.13,87.1,1.000,0
88.39,2095.9,58.5,-0,0.71,-0.12,87.1,1.000,0
88.49,2094.6,58.4,-0,0.71,-0.11,87.1,1.000,0
88.59,2093.4,58.4,-0,0.72,-0.10,87.1,1.000,0
88.69,2092.2,58.4,-0,0.73,-0.08,87.1,1.000,0
88.79,2090.9,58.4,-0,0.73,-0.07,87.1,1.000,0
88.89,2089.7,58.4,-0,0.74,-0.06,87.1,1.000,0
88.99,2088.5,58.4,-0,0.74,-0.04,87.1,1.000,0
89.09,2087.2,58.4,-0,0.75,-0.03,87.1,1.000,0
89.19,2086.0,58.4,-0,0.75,-0.02,87.1,1.000,0
89.29,2084.8,58.4,-0,0.75,-0.00,87.1,1.000,0
89.39,2083.6,58.4,-0,0.76,0.01,87.1,1.000,0
89.49,2082.3,58.4,-0,0.76,0.02,87.1,1.000,0
89.59,2081.1,58.4,-0,0.76,0.04,87.1,1.000,0
89.69,2079.9,58.3,-0,0.76,0.05,87.1,1.000,0
89.79,2078.7,58.3,-0,0.76,0.07,87.1,1.000,0
89.89,2077.4,58.3,-0,0.76,0.08,87.1,1.000,0
89.99,2076.2,58.3,-0,0.76,0.09,87.1,1.000,0
90.09,2075.0,58.3,-0,0.76,0.31,87.1,1.000,0
90.19,2073.8,58.3,-0,0.76,1.05,87.0,1.000,0
90.29,2072.5,58.3,-0,0.76,2.13,87.0,1.000,0
90.39,2071.3,58.3,-0,0.77,3.42,86.9,1.000,0
90.49,2070.1,58.3,-0,0.78,4.83,86.8,1.000,0
90.59,2068.9,58.3,-0,0.80,6.30,86.7,1.000,0
90.69,2067.6,58.2,-0,0.84,7.79,86.6,1.000,0
90.79,2066.4,58.2,-0,0.89,9.28,86.5,1.000,0
90.89,2065.2,58.2,-0,0.96,10.73,86.4,1.000,0
90.99,2063.9,58.2,-0,1.05,12.14,86.4,1.000,0
91.09,2062.6,58.2,-0,1.14,13.50,86.3,1.000,0
91.19,2061.4,58.2,-0,1.25,14.80,86.3,1.000,0
91.29,2060.1,58.1,-0,1.35,16.05,86.4,1.000,0
91.39,2058.8,58.1,-0,1.46,17.25,86.5,1.000,0
91.49,2057.5,58.1,-0,1.56,18.39,86.7,1.000,0
91.59,2056.1,58.1,-0,1.65,19.50,86.9,1.000,0
91.69,2054.8,58.1,-0,1.73,20.56,87.2,1.000,0
91.79,2053.4,58.1,-0,1.78,21.59,87.6,1.000,0
91.89,2052.0,58.1,-0,1.81,22.59,88.1,1.000,0
91.99,2050.6,58.0,-0,1.82,23.58,88.6,1.000,0
92.09,2049.2,58.0,-0,1.79,24.55,89.3,1.000,0
92.19,2047.7,58.1,-0,1.73,25.52,90.0,1.000,0
92.29,2046.2,58.1,-0,1.63,26.49,90.7,1.000,0
92.39,2044.7,58.1,-0,1.51,27.47,91.5,1.000,0
92.49,2043.1,58.1,-0,1.35,28.47,92.4,1.000,0
92.59,2041.5,58.1,-0,1.15,29.48,93.4,1.000,0
92.69,2039.8,58.2,-0,0.92,30.51,94.4,1.000,0
92.79,2038.1,58.2,-0,0.66,31.56,95.5,1.000,0
92.89,2036.4,58.3,-0,0.37,32.64,96.6,1.000,0
92.99,2034.6,58.3,-0,0.05,33.75,97.8,1.000,0
93.09,2032.8,58.4,-0,-0.30,34.89,99.0,1.000,0
93.19,2030.9,58.5,-0,-0.68,36.05,100.3,1.000,0
93.29,2028.9,58.6,-0,-1.09,37.25,101.5,1.000,0
93.39,2026.9,58.7,-0,-1.52,38.46,102.9,1.000,0
93.49,2024.8,58.8,-0,-1.98,39.71,104.2,1.000,0
93.59,2022.7,58.9,-0,-2.45,40.97,105.6,1.000,0
93.69,2020.5,59.1,-0,-2.95,42.25,107.0,1.000,0
93.79,2018.2,59.2,-0,-3.47,43.55,108.4,1.000,0
93.89,2015.8,59.4,-0,-4.01,44.86,109.8,1.000,0
93.99,2013.3,59.6,-0,-4.56,46.18,111.2,1.000,0
94.09,2010.8,59.8,-0,-5.14,47.51,112.7,1.000,0
94.19,2008.1,60.0,-0,-5.72,48.84,114.2,1.000,0
94.29,2005.3,60.3,-0,-6.33,50.17,115.7,1.000,0
94.39,2002.5,60.5,-0,-6.94,51.50,117.2,1.000,0
94.49,1999.5,60.8,-0,-7.57,52.82,118.7,1.000,0
94.59,1996.4,61.1,-0,-8.22,54.13,120.3,1.000,0
94.69,1993.2,61.4,-0,-8.88,55.42,121.9,1.000,0
94.79,1989.9,61.7,-0,-9.56,56.71,123.5,1.000,0
94.89,1986.4,62.0,-0,-10.26,57.97,125.2,1.000,0
94.99,1982.8,62.4,-0,-10.97,59.22,126.8,1.000,0
95.09,1979.1,62.7,-0,-11.70,60.45,128.5,1.000,0
95.19,1975.2,63.1,-0,-12.45,61.65,130.3,1.000,0
95.29,1971.2,63.6,-0,-13.23,62.83,132.0,1.000,0
95.39,1967.1,64.0,-0,-14.02,63.99,133.8,1.000,0
95.49,1962.7,64.4,-0,-14.84,65.13,135.7,1.000,0
95.59,1958.2,64.9,-0,-15.68,66.24,137.6,1.000,0
95.69,1953.6,65.4,-0,-16.54,67.32,139.5,1.000,0
95.79,1948.8,65.9,-0,-17.43,68.39,141.4,1.000,0
95.89,1943.8,66.4,-0,-18.34,69.42,143.4,1.000,0
95.99,1938.6,67.0,-0,-19.27,70.44,145.4,1.000,0
96.09,1933.2,67.6,-0,-20.22,71.40,147.5,1.000,0
96.19,1927.7,68.1,-0,-21.20,72.26,149.6,1.000,0
96.29,1921.9,68.7,-0,-22.20,72.97,151.7,1.000,0
96.39,1916.0,69.4,-0,-23.21,73.48,153.9,1.000,0
96.49,1909.9,70.0,-0,-24.24,73.78,156.2,1.000,0
96.59,1903.5,70.7,-0,-25.29,73.86,158.4,1.000,0
96.69,1897.0,71.4,-0,-26.33,73.71,160.7,1.000,0
96.79,1890.3,72.1,-0,-27.37,73.32,163.0,1.000,0
96.89,1883.3,72.8,-0,-28.40,72.70,165.4,1.000,0
96.99,1876.2,73.5,-0,-29.40,71.84,167.8,1.000,0
97.09,1868.9,74.2,-0,-30.36,70.73,170.2,1.000,0
97.19,1861.4,75.0,-0,-31.28,69.35,172.6,1.000,0
97.29,1853.8,75.8,-0,-32.12,67.67,175.1,1.000,0
97.39,1845.9,76.5,-0,-32.89,65.68,177.6,1.000,0
97.49,1838.0,77.3,-0,-33.57,63.36,180.2,1.000,0
97.59,1829.9,78.1,-0,-34.13,60.71,182.8,1.000,0
97.69,1821.6,78.9,-0,-34.56,57.75,185.3,1.000,0
97.79,1813.3,79.7,-0,-34.85,54.47,187.9,1.000,0
97.89,1804.9,80.5,-0,-34.97,50.89,190.5,1.000,0
97.99,1796.4,81.3,-0,-34.91,47.03,193.0,1.000,0
98.09,1787.9,82.0,-0,-34.65,42.95,195.5,1.000,0
98.19,1779.4,82.7,-0,-34.18,38.81,197.8,1.000,0
98.29,1771.0,83.4,-0,-33.51,34.71,200.0,1.000,0
98.39,1762.5,84.1,-0,-32.64,30.74,202.1,1.000,0
98.49,1754.2,84.7,-0,-31.59,26.91,203.9,1.000,0
98.59,1746.0,85.3,-0,-30.38,23.25,205.5,1.000,0
98.69,1738.0,85.8,-0,-29.03,19.76,206.8,1.000,0
98.79,1730.1,86.3,-0,-27.57,16.41,207.9,1.000,0
98.89,1722.4,86.8,-0,-26.02,13.20,208.8,1.000,0
98.99,1714.9,87.2,-0,-24.41,10.08,209.3,1.000,0
99.09,1707.7,87.6,-0,-22.76,7.04,209.7,1.000,0
99.19,1700.7,88.0,-0,-21.08,4.05,209.8,1.000,0
99.29,1694.0,88.3,-0,-19.39,1.07,209.6,1.000,0
99.39,1687.7,88.6,-0,-17.72,-1.91,209.3,1.000,0
99.49,1681.6,88.8,-0,-16.06,-4.91,208.9,1.000,0
99.59,1675.8,89.0,-0,-14.45,-7.95,208.2,1.000,0
99.69,1670.4,89.1,-0,-12.88,-11.00,207.4,1.000,0
99.79,1665.3,89.2,-0,-11.36,-13.98,206.5,1.000,0
99.89,1660.5,89.3,-0,-9.91,-16.84,205.4,1.000,0
99.99,1656.1,89.3,-0,-8.53,-19.53,204.3,1.000,0
100.09,1651.9,89.3,-0,-7.24,-22.03,203.0,1.000,0
100.19,1648.1,89.2,-0,-6.03,-24.32,201.6,1.000,0
100.29,1644.6,89.2,-0,-4.90,-26.41,200.2,1.000,0
100.39,1641.4,89.0,-0,-3.86,-28.29,198.6,1.000,0
100.49,1638.4,88.9,-0,-2.91,-29.95,197.1,1.000,0
100.59,1635.8,88.7,-0,-2.03,-31.40,195.4,1.000,0
100.69,1633.4,88.5,-0,-1.23,-32.63,193.8,1.000,0
100.79,1631.2,88.3,-0,-0.49,-33.66,192.1,1.000,0
100.89,1629.3,88.0,-0,0.19,-34.48,190.3,1.000,0
100.99,1627.6,87.8,-0,0.83,-35.09,188.6,1.000,0
101.09,1626.2,87.5,-0,1.42,-35.52,186.9,1.000,0
101.19,1624.9,87.2,-0,1.98,-35.79,185.1,1.000,0
101.29,1623.9,86.8,-0,2.52,-35.92,183.4,1.000,0
101.39,1623.1,86.5,-0,3.05,-35.93,181.7,1.000,0
101.49,1622.4,86.1,-0,3.58,-35.82,180.0,1.000,0
101.59,1622.0,85.8,-0,4.11,-35.60,178.4,1.000,0
101.69,1621.7,85.4,-0,4.65,-35.28,176.8,1.000,0
101.79,1621.6,85.0,-0,5.20,-34.85,175.2,1.000,0
101.89,1621.7,84.5,-0,5.77,-34.32,173.7,1.000,0
101.99,1622.0,84.1,-0,6.37,-33.69,172.2,1.000,0
102.09,1622.4,83.6,-0,7.00,-32.96,170.7,1.000,0
102.19,1623.0,83.1,-0,7.65,-32.14,169.4,1.000,0
102.29,1623.8,82.6,-0,8.34,-31.22,168.0,1.000,0
102.39,1624.7,82.1,-0,9.04,-30.22,166.8,1.000,0
102.49,1625.8,81.5,-0,9.77,-29.13,165.5,1.000,0
102.59,1627.1,81.0,-0,10.52,-27.96,164.4,1.000,0
102.69,1628.5,80.4,-0,11.29,-26.72,163.3,1.000,0
102.79,1630.1,79.8,-0,12.07,-25.40,162.3,1.000,0
102.89,1631.8,79.1,-0,12.86,-24.02,161.3,1.000,0
102.99,1633.7,78.5,-0,13.67,-22.59,160.4,1.000,0
103.09,1635.7,77.8,-0,14.48,-21.10,159.5,1.000,0
103.19,1637.9,77.1,-0,15.30,-19.56,158.7,1.000,0
103.29,1640.3,76.4,-0,16.12,-17.99,158.0,1.000,0
103.39,1642.7,75.7,-0,16.94,-16.41,157.3,1.000,0
103.49,1645.3,75.0,-0,17.76,-14.82,156.7,1.000,0
103.59,1648.1,74.2,-0,18.58,-13.25,156.1,1.000,0
103.69,1650.9,73.4,-0,19.38,-11.68,155.7,1.000,0
103.79,1653.9,72.6,-0,20.17,-10.11,155.3,1.000,0
103.89,1657.0,71.8,-0,20.94,-8.56,154.9,1.000,0
103.99,1660.1,71.0,-0,21.70,-7.01,154.6,1.000,0
104.09,1663.4,70.2,-0,22.44,-5.47,154.4,1.000,0
104.19,1666.7,69.3,-0,23.15,-3.93,154.3,1.000,0
104.29,1670.1,68.5,-0,23.84,-2.38,154.2,1.000,0
104.39,1673.6,67.6,-0,24.49,-0.84,154.1,1.000,0
104.49,1677.1,66.7,-0,25.12,0.70,154.2,1.000,0
104.59,1680.7,65.8,-0,25.71,2.24,154.3,1.000,0
104.69,1684.3,64.9,-0,26.27,3.79,154.4,1.000,0
104.79,1687.9,64.0,-0,26.78,5.33,154.6,1.000,0
104.89,1691.5,63.1,-0,27.26,6.85,154.9,1.000,0
104.99,1695.1,62.2,-0,27.69,8.34,155.2,1.000,0
105.09,1698.8,61.3,-0,28.08,9.80,155.6,1.000,0
105.19,1702.4,60.4,-0,28.42,11.23,156.0,1.000,0
105.29,1706.0,59.5,-0,28.71,12.61,156.4,1.000,0
105.39,1709.5,58.5,-0,28.94,13.95,156.9,1.000,0
105.49,1713.0,57.6,-0,29.12,15.24,157.5,1.000,0
105.59,1716.4,56.7,-0,29.25,16.49,158.1,1.000,0
105.69,1719.8,55.9,-0,29.32,17.68,158.7,1.000,0
105.79,1723.1,55.0,-0,29.33,18.82,159.3,1.000,0
105.89,1726.4,54.1,-0,29.28,19.91,160.0,1.000,0
105.99,1729.5,53.2,-0,29.17,20.95,160.7,1.000,0
106.09,1732.6,52.4,-0,29.00,21.93,161.4,1.000,0
106.19,1735.5,51.6,-0,28.76,22.85,162.1,1.000,0
106.29,1738.4,50.7,-0,28.47,23.72,162.8,1.000,0
106.39,1741.1,50.0,-0,28.11,24.54,163.6,1.000,0
106.49,1743.7,49.2,-0,27.70,25.29,164.3,1.000,0
106.59,1746.2,48.4,-0,27.22,26.00,165.1,1.000,0
106.69,1748.6,47.7,-0,26.67,26.64,165.9,1.000,0
106.79,1750.8,47.0,-0,26.06,27.24,166.6,1.000,0
106.89,1752.9,46.3,-0,25.40,27.77,167.4,1.000,0
106.99,1754.8,45.7,-0,24.67,28.26,168.1,1.000,0
107.09,1756.6,45.1,-0,23.87,28.69,168.9,1.000,0
107.19,1758.3,44.5,-0,23.03,29.07,169.6,1.000,0
107.29,1759.8,44.0,-0,22.12,29.40,170.4,1.000,0
107.39,1761.1,43.5,-0,21.15,29.69,171.1,1.000,0
107.49,1762.3,43.0,-0,20.13,29.92,171.8,1.000,0
107.59,1763.3,42.6,-0,19.06,30.11,172.5,1.000,0
107.69,1764.2,42.2,-0,17.94,30.25,173.2,1.000,0
107.79,1764.9,41.9,-0,16.77,30.36,173.9,1.000,0
107.89,1765.4,41.6,-0,15.55,30.41,174.6,1.000,0
107.99,1765.8,41.3,-0,14.29,30.43,175.3,1.000,0
108.09,1766.0,41.1,-0,13.00,30.41,176.0,1.000,0
108.19,1766.0,40.9,-0,11.66,30.35,176.7,1.000,0
108.29,1765.9,40.8,-0,10.30,30.25,177.4,1.000,0
108.39,1765.6,40.7,-0,8.90,30.10,178.1,1.000,0
108.49,1765.2,40.7,-0,7.48,29.91,178.8,1.000,0
108.59,1764.5,40.7,-0,6.04,29.68,179.6,1.000,0
108.69,1763.8,40.8,-0,4.59,29.40,180.3,1.000,0
108.79,1762.8,40.9,-0,3.12,29.06,181.1,1.000,0
108.89,1761.7,41.0,-0,1.65,28.68,181.9,1.000,0
108.99,1760.4,41.2,-0,0.17,28.24,182.7,1.000,0
109.09,1759.0,41.4,-0,-1.31,27.74,183.5,1.000,0
109.19,1757.4,41.7,-0,-2.77,27.19,184.3,1.000,0
109.29,1755.6,42.0,-0,-4.23,26.58,185.2,1.000,0
109.39,1753.7,42.3,-0,-5.66,25.90,186.1,1.000,0
109.49,1751.6,42.7,-0,-7.07,25.16,187.0,1.000,0
109.59,1749.4,43.1,-0,-8.44,24.35,188.0,1.000,0
109.69,1747.0,43.5,-0,-9.78,23.48,189.0,1.000,0
109.79,1744.5,44.0,-0,-11.08,22.53,190.0,1.000,0
109.89,1741.8,44.5,-0,-12.32,21.50,191.0,1.000,0
109.99,1739.0,45.0,-0,-13.51,20.41,192.1,1.000,0
110.09,1736.0,45.6,-0,-14.63,19.23,193.2,1.000,0
110.19,1732.9,46.1,-0,-15.69,17.98,194.3,1.000,0
110.29,1729.7,46.7,-0,-16.67,16.65,195.4,1.000,0
110.39,1726.3,47.3,-0,-17.56,15.25,196.5,1.000,0
110.49,1722.8,47.9,-0,-18.36,13.78,197.6,1.000,0
110.59,1719.2,48.6,-0,-19.07,12.24,198.7,1.000,0
110.69,1715.5,49.2,-0,-19.68,10.64,199.8,1.000,0
110.79,1711.7,49.8,-0,-20.19,8.98,200.8,1.000,0
110.89,1707.7,50.5,-0,-20.61,7.30,201.8,1.000,0
110.99,1703.7,51.1,-0,-20.93,5.62,202.7,1.000,0
111.09,1699.5,51.8,-0,-21.16,3.95,203.6,1.000,0
111.19,1695.3,52.5,-0,-21.32,2.31,204.4,1.000,0
111.29,1691.0,53.1,-0,-21.39,0.71,205.0,1.000,0
111.39,1686.6,53.8,-0,-21.40,-0.85,205.6,1.000,0
111.49,1682.1,54.4,-0,-21.35,-2.36,206.1,1.000,0
111.59,1677.6,55.1,-0,-21.24,-3.84,206.4,1.000,0
111.69,1673.0,55.7,-0,-21.09,-5.28,206.6,1.000,0
111.79,1668.3,56.4,-0,-20.90,-6.69,206.7,1.000,0
111.89,1663.6,57.0,-0,-20.68,-8.08,206.6,1.000,0
111.99,1658.8,57.7,-0,-20.44,-9.45,206.4,1.000,0
112.09,1654.0,58.3,-0,-20.17,-10.83,206.1,1.000,0
112.19,1649.2,58.9,-0,-19.89,-12.18,205.7,1.000,0
112.29,1644.3,59.5,-0,-19.60,-13.50,205.1,1.000,0
112.39,1639.4,60.1,-0,-19.31,-14.77,204.4,1.000,0
112.49,1634.5,60.7,-0,-19.02,-15.97,203.6,1.000,0
112.59,1629.6,61.3,-0,-18.74,-17.10,202.7,1.000,0
112.69,1624.7,61.9,-0,-18.48,-18.16,201.7,1.000,0
112.79,1619.7,62.4,-0,-18.23,-19.13,200.6,1.000,0
112.89,1614.8,63.0,-0,-18.00,-20.03,199.5,1.000,0
112.99,1609.9,63.5,-0,-17.80,-20.84,198.2,1.000,0
113.09,1604.9,64.1,-0,-17.62,-21.56,196.9,1.000,0
113.19,1600.0,64.6,-0,-17.46,-22.20,195.6,1.000,0
113.29,1595.1,65.1,-0,-17.32,-22.75,194.2,1.000,0
113.39,1590.2,65.6,-0,-17.19,-23.22,192.8,1.000,0
113.49,1585.4,66.1,-0,-17.08,-23.61,191.4,1.000,0
113.59,1580.6,66.6,-0,-16.96,-23.91,190.0,1.000,0
113.69,1575.8,67.1,-0,-16.85,-24.14,188.5,1.000,0
113.79,1571.0,67.5,-0,-16.73,-24.28,187.1,1.000,0
113.89,1566.3,68.0,-0,-16.60,-24.34,185.7,1.000,0
113.99,1561.6,68.5,-0,-16.45,-24.34,184.3,1.000,0
114.09,1556.9,68.9,-0,-16.29,-24.29,183.0,1.000,0
114.19,1552.3,69.3,-0,-16.09,-24.18,181.7,1.000,0
114.29,1547.8,69.7,-0,-15.87,-24.04,180.4,1.000,0
114.39,1543.3,70.1,-0,-15.61,-23.84,179.2,1.000,0
114.49,1538.8,70.5,-0,-15.31,-23.61,178.0,1.000,0
114.59,1534.4,70.9,-0,-14.98,-23.33,176.9,1.000,0
114.69,1530.1,71.2,-0,-14.60,-23.01,175.8,1.000,0
114.79,1525.9,71.6,-0,-14.18,-22.63,174.8,1.000,0
114.89,1521.7,71.9,-0,-13.72,-22.21,173.9,1.000,0
114.99,1517.6,72.2,-0,-13.22,-21.74,173.0,1.000,0
115.09,1513.6,72.4,-0,-12.69,-21.21,172.1,1.000,0
115.19,1509.7,72.7,-0,-12.13,-20.63,171.3,1.000,0
115.29,1505.9,72.9,-0,-11.54,-19.99,170.6,1.000,0
115.39,1502.2,73.1,-0,-10.92,-19.30,169.9,1.000,0
115.49,1498.6,73.3,-0,-10.28,-18.55,169.2,1.000,0
115.59,1495.1,73.5,-0,-9.62,-17.75,168.6,1.000,0
115.69,1491.7,73.7,-0,-8.95,-16.90,168.0,1.000,0
115.79,1488.5,73.8,-0,-8.26,-16.00,167.4,1.000,0
115.89,1485.4,73.9,-0,-7.56,-15.04,166.9,1.000,0
115.99,1482.4,74.0,-0,-6.85,-14.05,166.4,1.000,0
116.09,1479.6,74.1,-0,-6.13,-13.01,166.0,1.000,0
116.19,1476.9,74.1,-0,-5.40,-11.94,165.5,1.000,0
116.29,1474.4,74.2,-0,-4.67,-10.84,165.1,1.000,0
116.39,1472.0,74.2,-0,-3.93,-9.72,164.8,1.000,0
116.49,1469.7,74.1,-0,-3.19,-8.57,164.4,1.000,0
116.59,1467.7,74.1,-0,-2.44,-7.42,164.1,1.000,0
116.69,1465.7,74.0,-0,-1.69,-6.25,163.8,1.000,0
116.79,1464.0,73.9,-0,-0.94,-5.08,163.6,1.000,0
116.89,1462.4,73.8,-0,-0.19,-3.92,163.3,1.000,0
116.99,1460.9,73.7,-0,0.56,-2.76,163.1,1.000,0
117.09,1459.6,73.5,-0,1.31,-1.61,163.0,1.000,0
117.19,1458.5,73.3,-0,2.06,-0.48,162.9,1.000,0
117.29,1457.5,73.1,-0,2.80,0.63,162.8,1.000,0
117.39,1456.6,72.9,-0,3.54,1.71,162.8,1.000,0
117.49,1456.0,72.6,-0,4.27,2.77,162.9,1.000,0
117.59,1455.4,72.4,-0,4.99,3.81,162.9,1.000,0
117.69,1455.0,72.1,-0,5.69,4.81,163.1,1.000,0
117.79,1454.8,71.8,-0,6.38,5.78,163.2,1.000,0
117.89,1454.6,71.4,-0,7.05,6.72,163.5,1.000,0
117.99,1454.6,71.1,-0,7.70,7.62,163.7,1.000,0
118.09,1454.8,70.7,-0,8.33,8.49,164.1,1.000,0
118.19,1455.0,70.4,-0,8.94,9.33,164.4,1.000,0
118.29,1455.4,70.0,-0,9.51,10.13,164.8,1.000,0
118.39,1455.8,69.6,-0,10.07,10.90,165.3,1.000,0
118.49,1456.4,69.1,-0,10.59,11.63,165.8,1.000,0
118.59,1457.1,68.7,-0,11.09,12.32,166.3,1.000,0
118.69,1457.8,68.3,-0,11.55,12.98,166.9,1.000,0
118.79,1458.7,67.8,-0,11.99,13.60,167.5,1.000,0
118.89,1459.6,67.3,-0,12.40,14.19,168.1,1.000,0
118.99,1460.6,66.9,-0,12.77,14.74,168.7,1.000,0
119.09,1461.6,66.4,-0,13.12,15.25,169.4,1.000,0
119.19,1462.7,65.9,-0,13.43,15.73,170.1,1.000,0
119.29,1463.9,65.4,-0,13.72,16.17,170.8,1.000,0
119.39,1465.1,64.9,-0,13.98,16.57,171.5,1.000,0
119.49,1466.3,64.4,-0,14.20,16.93,172.2,1.000,0
119.59,1467.6,63.9,-0,14.41,17.25,172.9,1.000,0
119.69,1468.9,63.4,-0,14.58,17.53,173.6,1.000,0
119.79,1470.3,62.9,-0,14.73,17.78,174.3,1.000,0
119.89,1471.6,62.4,-0,14.85,17.98,175.0,1.000,0
119.99,1473.0,61.9,-0,14.95,18.15,175.7,1.000,0
120.09,1474.4,61.4,-0,15.03,18.27,176.4,1.000,0
120.19,1475.7,60.9,-0,15.08,18.36,177.1,1.000,0
120.29,1477.1,60.4,-0,15.11,18.40,177.8,1.000,0
120.39,1478.4,59.9,-0,15.11,18.39,178.5,1.000,0
120.49,1479.8,59.4,-0,15.10,18.33,179.2,1.000,0
120.59,1481.1,58.9,-0,15.06,18.22,179.8,1.000,0
120.69,1482.4,58.5,-0,15.00,18.06,180.5,1.000,0
120.79,1483.7,58.0,-0,14.91,17.85,181.1,1.000,0
120.89,1485.0,57.5,-0,14.81,17.59,181.7,1.000,0
120.99,1486.2,57.0,-0,14.69,17.29,182.3,1.000,0
121.09,1487.4,56.6,-0,14.54,16.94,182.9,1.000,0
121.19,1488.6,56.1,-0,14.38,16.54,183.5,1.000,0
121.29,1489.7,55.7,-0,14.20,16.11,184.0,1.000,0
121.39,1490.7,55.3,-0,13.99,15.63,184.6,1.000,0
121.49,1491.8,54.9,-0,13.77,15.12,185.1,1.000,0
121.59,1492.7,54.5,-0,13.53,14.57,185.7,1.000,0
121.69,1493.7,54.1,-0,13.27,13.99,186.2,1.000,0
121.79,1494.5,53.7,-0,13.00,13.37,186.7,1.000,0
121.89,1495.4,53.3,-0,12.71,12.73,187.1,1.000,0
121.99,1496.1,52.9,-0,12.40,12.06,187.6,1.000,0
122.09,1496.8,52.6,-0,12.08,11.37,188.0,1.000,0
122.19,1497.5,52.3,-0,11.75,10.65,188.5,1.000,0
122.29,1498.0,51.9,-0,11.40,9.92,188.9,1.000,0
122.39,1498.5,51.6,-0,11.03,9.16,189.3,1.000,0
122.49,1499.0,51.3,-0,10.66,8.39,189.7,1.000,0
122.59,1499.4,51.1,-0,10.27,7.60,190.0,1.000,0
122.69,1499.7,50.8,-0,9.86,6.80,190.4,1.000,0
122.79,1499.9,50.5,-0,9.45,5.99,190.7,1.000,0
122.89,1500.0,50.3,-0,9.02,5.17,191.0,1.000,0
122.99,1500.1,50.1,-0,8.58,4.34,191.3,1.000,0
123.09,1500.1,49.9,-0,8.13,3.51,191.5,1.000,0
123.19,1500.1,49.7,-0,7.68,2.67,191.8,1.000,0
123.29,1499.9,49.6,-0,7.21,1.83,192.0,1.000,0
123.39,1499.7,49.4,-0,6.74,0.99,192.2,1.000,0
123.49,1499.4,49.3,-0,6.26,0.15,192.3,1.000,0
123.59,1499.0,49.2,-0,5.77,-0.68,192.4,1.000,0
123.69,1498.5,49.1,-0,5.28,-1.51,192.6,1.000,0
123.79,1498.0,49.0,-0,4.78,-2.34,192.6,1.000,0
123.89,1497.4,48.9,-0,4.28,-3.16,192.7,1.000,0
123.99,1496.6,48.9,-0,3.77,-3.96,192.7,1.000,0
124.09,1495.8,48.9,-0,3.26,-4.76,192.7,1.000,0
124.19,1495.0,48.9,-0,2.75,-5.55,192.6,1.000,0
124.29,1494.0,48.9,-0,2.23,-6.32,192.6,1.000,0
124.39,1493.0,48.9,-0,1.72,-7.07,192.5,1.000,0
124.49,1491.8,49.0,-0,1.20,-7.81,192.3,1.000,0
124.59,1490.6,49.0,-0,0.68,-8.53,192.1,1.000,0
124.69,1489.3,49.1,-0,0.16,-9.22,191.9,1.000,0
124.79,1487.9,49.2,-0,-0.35,-9.90,191.7,1.000,0
124.89,1486.5,49.3,-0,-0.87,-10.55,191.4,1.000,0
124.99,1484.9,49.5,-0,-1.39,-11.17,191.1,1.000,0
125.09,1483.3,49.6,-0,-1.90,-11.77,190.7,1.000,0
125.19,1481.6,49.8,-0,-2.41,-12.34,190.4,1.000,0
125.29,1479.8,50.0,-0,-2.92,-12.87,189.9,1.000,0
125.39,1477.9,50.2,-0,-3.43,-13.37,189.5,1.000,0
125.49,1476.0,50.4,-0,-3.93,-13.84,189.0,1.000,0
125.59,1474.0,50.6,-0,-4.43,-14.28,188.5,1.000,0
125.69,1471.9,50.8,-0,-4.92,-14.67,188.0,1.000,0
125.79,1469.7,51.1,-0,-5.40,-15.03,187.4,1.000,0
125.89,1467.5,51.3,-0,-5.88,-15.35,186.8,1.000,0
125.99,1465.1,51.6,-0,-6.35,-15.62,186.2,1.000,0
126.09,1462.7,51.9,-0,-6.81,-15.85,185.5,1.000,0
126.19,1460.3,52.2,-0,-7.26,-16.04,184.8,1.000,0
126.29,1457.8,52.5,-0,-7.70,-16.18,184.1,1.000,0
126.39,1455.2,52.8,-0,-8.12,-16.28,183.4,1.000,0
126.49,1452.5,53.2,-0,-8.53,-16.33,182.7,1.000,0
126.59,1449.8,53.5,-0,-8.93,-16.34,181.9,1.000,0
126.69,1447.0,53.8,-0,-9.31,-16.32,181.2,1.000,0
126.79,1444.2,54.2,-0,-9.67,-16.26,180.4,1.000,0
126.89,1441.3,54.6,-0,-10.01,-16.17,179.6,1.000,0
126.99,1438.4,54.9,-0,-10.34,-16.04,178.8,1.000,0
127.09,1435.4,55.3,-0,-10.64,-15.89,178.1,1.000,0
127.19,1432.3,55.7,-0,-10.92,-15.71,177.3,1.000,0
127.29,1429.3,56.0,-0,-11.17,-15.50,176.5,1.000,0
127.39,1426.1,56.4,-0,-11.40,-15.26,175.8,1.000,0
127.49,1423.0,56.8,-0,-11.61,-15.00,175.0,1.000,0
127.59,1419.8,57.2,-0,-11.78,-14.71,174.3,1.000,0
127.69,1416.5,57.6,-0,-11.93,-14.39,173.6,1.000,0
127.79,1413.3,58.0,-0,-12.05,-14.04,172.9,1.000,0
127.89,1410.0,58.4,-0,-12.13,-13.67,172.2,1.000,0
127.99,1406.7,58.8,-0,-12.19,-13.28,171.6,1.000,0
128.09,1403.3,59.1,-0,-12.21,-12.85,171.0,1.000,0
128.19,1400.0,59.5,-0,-12.20,-12.41,170.4,1.000,0
128.29,1396.6,59.9,-0,-12.15,-11.94,169.9,1.000,0
128.39,1393.3,60.2,-0,-12.08,-11.44,169.3,1.000,0
128.49,1389.9,60.6,-0,-11.98,-10.92,168.9,1.000,0
128.59,1386.5,60.9,-0,-11.86,-10.38,168.4,1.000,0
128.69,1383.2,61.3,-0,-11.70,-9.82,168.0,1.000,0
128.79,1379.8,61.6,-0,-11.53,-9.24,167.6,1.000,0
128.89,1376.5,61.9,-0,-11.33,-8.63,167.2,1.000,0
128.99,1373.1,62.3,-0,-11.10,-8.01,166.9,1.000,0
129.09,1369.8,62.6,-0,-10.86,-7.37,166.6,1.000,0
129.19,1366.6,62.9,-0,-10.60,-6.71,166.4,1.000,0
129.29,1363.3,63.2,-0,-10.31,-6.03,166.2,1.000,0
129.39,1360.1,63.4,-0,-10.02,-5.35,166.0,1.000,0
129.49,1356.9,63.7,-0,-9.70,-4.64,165.8,1.000,0
129.59,1353.8,64.0,-0,-9.37,-3.93,165.7,1.000,0
129.69,1350.7,64.2,-0,-9.03,-3.21,165.6,1.000,0
129.79,1347.7,64.4,-0,-8.68,-2.48,165.5,1.000,0
129.89,1344.7,64.7,-0,-8.32,-1.75,165.5,1.000,0
129.99,1341.7,64.9,-0,-7.94,-1.01,165.4,1.000,0
130.09,1338.8,65.1,-0,-7.56,-0.27,165.4,1.000,0
130.19,1336.0,65.2,-0,-7.17,0.47,165.5,1.000,0
130.29,1333.3,65.4,-0,-6.78,1.20,165.5,1.000,0
130.39,1330.6,65.6,-0,-6.38,1.93,165.6,1.000,0
130.49,1327.9,65.7,-0,-5.97,2.64,165.7,1.000,0
130.59,1325.4,65.8,-0,-5.57,3.35,165.9,1.000,0
130.69,1322.9,66.0,-0,-5.16,4.05,166.0,1.000,0
130.79,1320.5,66.1,-0,-4.74,4.73,166.2,1.000,0
130.89,1318.1,66.2,-0,-4.33,5.39,166.4,1.000,0
130.99,1315.9,66.2,-0,-3.92,6.04,166.6,1.000,0
131.09,1313.7,66.3,-0,-3.51,6.66,166.9,1.000,0
